[{"id":3629,"lat":44.383889,"lng":26.145737,"name":"Romprim"},{"id":3628,"lat":44.385667,"lng":26.14038,"name":"Soseaua Vitan Barzesti"},{"id":3225,"lat":44.388996,"lng":26.132559,"name":"Stadion"},{"id":3222,"lat":44.391402,"lng":26.126918,"name":"Lunca Barzesti"},{"id":3196,"lat":44.393636,"lng":26.121658,"name":"Piata Sudului"},{"id":3151,"lat":44.3989,"lng":26.120921,"name":"Pridvorului"},{"id":3487,"lat":44.407893,"lng":26.121444,"name":"Pasaj Mihai Bravu"},{"id":3450,"lat":44.409751,"lng":26.123544,"name":"Pod Mihai Bravu"},{"id":3129,"lat":44.411837,"lng":26.12743,"name":"Penes Curcanul"},{"id":3145,"lat":44.415476,"lng":26.13353,"name":"Calea Vitan"},{"id":3140,"lat":44.417355,"lng":26.135101,"name":"Laborator"},{"id":3136,"lat":44.419867,"lng":26.136577,"name":"Calea Dudesti"},{"id":3134,"lat":44.425182,"lng":26.137551,"name":"Baba Novac"},{"id":3446,"lat":44.428455,"lng":26.138765,"name":"Gheorghe Petrascu"},{"id":3357,"lat":44.431414,"lng":26.139187,"name":"Piata Hurmuzachi"},{"id":3451,"lat":44.43735,"lng":26.136509,"name":"Vatra Luminoasa"},{"id":3434,"lat":44.440794,"lng":26.13392,"name":"Piata Iancului"},{"id":3436,"lat":44.444252,"lng":26.128538,"name":"Bd Ferdinand"},{"id":3223,"lat":44.448659,"lng":26.125441,"name":"Bucur Obor"},{"id":3235,"lat":44.451848,"lng":26.12041,"name":"Lizeanu"},{"id":3157,"lat":44.452646,"lng":26.115772,"name":"Dr Grozovici"},{"id":3156,"lat":44.452891,"lng":26.112019,"name":"Vasile Lascar"},{"id":3608,"lat":44.452985,"lng":26.105985,"name":"Stadion Dinamo"},{"id":3204,"lat":44.453021,"lng":26.098968,"name":"Calea Dorobantilor"},{"id":3207,"lat":44.452745,"lng":26.093919,"name":"Roma"},{"id":3209,"lat":44.452535,"lng":26.091279,"name":"Pasaj Victoria"},{"id":3104,"lat":44.452135,"lng":26.07996,"name":"Dr Felix"},{"id":3464,"lat":44.452697,"lng":26.073936,"name":"Bd Banu Manta"},{"id":3335,"lat":44.44987,"lng":26.068454,"name":"Pasajul Basarab"},{"id":3430,"lat":44.442366,"lng":26.060353,"name":"Pod Grozavesti"},{"id":3432,"lat":44.43476,"lng":26.054364,"name":"Bd Iuliu Maniu"},{"id":3426,"lat":44.429072,"lng":26.054458,"name":"Bd Timisoara"},{"id":3189,"lat":44.428466,"lng":26.06221,"name":"Piata Danny Huwe"},{"id":3116,"lat":44.425402,"lng":26.065977,"name":"Aprodex"},{"id":3117,"lat":44.422564,"lng":26.069668,"name":"Calea 13 Septembrie"},{"id":3119,"lat":44.418672,"lng":26.07479,"name":"Inox"},{"id":3121,"lat":44.415154,"lng":26.079109,"name":"Calea Rahovei"},{"id":3123,"lat":44.411556,"lng":26.083396,"name":"Spatarul Preda"},{"id":3462,"lat":44.411062,"lng":26.088486,"name":"Soseaua Viilor"},{"id":3112,"lat":44.40766,"lng":26.092056,"name":"Stefan Hepites"},{"id":3641,"lat":44.40566,"lng":26.095432,"name":"Piata Eroii Revolutiei"},{"id":3642,"lat":44.401919,"lng":26.098726,"name":"Cimitirul Serban Voda"},{"id":3644,"lat":44.399868,"lng":26.105157,"name":"Opris Ilie"},{"id":3643,"lat":44.398396,"lng":26.109219,"name":"Bd Constantin Brancoveanu"},{"id":3645,"lat":44.396234,"lng":26.114877,"name":"Husi"},{"id":3490,"lat":44.394234,"lng":26.120074,"name":"Piata Sudului"},{"id":3252,"lat":44.393573,"lng":26.121724,"name":"Piata Sudului"},{"id":3220,"lat":44.391081,"lng":26.127571,"name":"Lunca Barzesti"},{"id":3219,"lat":44.389013,"lng":26.132426,"name":"Stadion"},{"id":3632,"lat":44.386382,"lng":26.138586,"name":"Soseaua Vitan Barzesti"},{"id":3620,"lat":44.38366,"lng":26.146168,"name":"Romprim"},{"id":3621,"lat":44.368885,"lng":26.088845,"name":"C.F.R. Progresul"},{"id":3622,"lat":44.372993,"lng":26.090218,"name":"Cap Raducanu Cristea"},{"id":3367,"lat":44.375909,"lng":26.090978,"name":"Anghel Nutu"},{"id":3370,"lat":44.378384,"lng":26.091651,"name":"Luica"},{"id":3636,"lat":44.382459,"lng":26.092367,"name":"Cimitirul Evreiesc"},{"id":3635,"lat":44.386089,"lng":26.092221,"name":"Drumul Gazarului"},{"id":3634,"lat":44.389379,"lng":26.092233,"name":"Toporasi"},{"id":3633,"lat":44.392872,"lng":26.093859,"name":"Piata Progresul"},{"id":3566,"lat":44.397355,"lng":26.095923,"name":"Muzeul Bacovia"},{"id":3568,"lat":44.402601,"lng":26.097347,"name":"Sura Mare"},{"id":3503,"lat":44.406149,"lng":26.094687,"name":"Piata Eroii Revolutiei"},{"id":3244,"lat":44.408411,"lng":26.090968,"name":"Stefan Hepites"},{"id":3242,"lat":44.411012,"lng":26.089178,"name":"Dr Constantin Istrati"},{"id":3510,"lat":44.414767,"lng":26.091732,"name":"Autogara Filaret"},{"id":3337,"lat":44.419615,"lng":26.095105,"name":"Parcul Carol I"},{"id":3303,"lat":44.42089,"lng":26.095575,"name":"Gramont"},{"id":3564,"lat":44.423663,"lng":26.09552,"name":"Patriarhia Romana"},{"id":3570,"lat":44.426646,"lng":26.100324,"name":"Piata Unirii"},{"id":3307,"lat":44.424282,"lng":26.095793,"name":"11 Iunie"},{"id":3567,"lat":44.421099,"lng":26.095603,"name":"Gramont"},{"id":3340,"lat":44.419367,"lng":26.094969,"name":"Parcul Carol I"},{"id":3495,"lat":44.4146,"lng":26.091358,"name":"Autogara Filaret"},{"id":3211,"lat":44.411787,"lng":26.088934,"name":"Soseaua Viilor"},{"id":3639,"lat":44.400386,"lng":26.097137,"name":"Sura Mare"},{"id":3650,"lat":44.397751,"lng":26.096038,"name":"Muzeul Bacovia"},{"id":3648,"lat":44.393226,"lng":26.093963,"name":"Piata Progresul"},{"id":3652,"lat":44.389838,"lng":26.092388,"name":"Toporasi"},{"id":3651,"lat":44.386465,"lng":26.09215,"name":"Drumul Gazarului"},{"id":3646,"lat":44.382627,"lng":26.092305,"name":"Cimitirul Evreiesc"},{"id":3371,"lat":44.379197,"lng":26.091811,"name":"Luica"},{"id":3368,"lat":44.376211,"lng":26.091013,"name":"Anghel Nutu"},{"id":3614,"lat":44.373553,"lng":26.090331,"name":"Cap Raducanu Cristea"},{"id":3612,"lat":44.36997,"lng":26.089156,"name":"C F R Progresul"},{"id":3212,"lat":44.429725,"lng":25.979408,"name":"Depoul Militari"},{"id":3215,"lat":44.430074,"lng":25.983489,"name":"Inscut"},{"id":3213,"lat":44.430583,"lng":25.98968,"name":"S C Vest"},{"id":3217,"lat":44.430983,"lng":25.994329,"name":"Urbis"},{"id":3201,"lat":44.431542,"lng":26.00117,"name":"Cesarom"},{"id":3504,"lat":44.428663,"lng":26.00191,"name":"C F R Cotroceni"},{"id":3518,"lat":44.423764,"lng":26.00067,"name":"Valea Cascadelor"},{"id":3353,"lat":44.424232,"lng":26.006508,"name":"Radox"},{"id":3548,"lat":44.424865,"lng":26.012978,"name":"Valea Oltului"},{"id":3545,"lat":44.426124,"lng":26.01805,"name":"Frigocom"},{"id":3544,"lat":44.426593,"lng":26.02397,"name":"Romancierilor"},{"id":3376,"lat":44.427004,"lng":26.02908,"name":"Compasului"},{"id":3542,"lat":44.427443,"lng":26.034239,"name":"Brasov"},{"id":3369,"lat":44.427941,"lng":26.040689,"name":"Sergent Moise"},{"id":3469,"lat":44.428253,"lng":26.048168,"name":"Sibiu"},{"id":3471,"lat":44.428591,"lng":26.05397,"name":"Bd Vasile Milea"},{"id":3565,"lat":44.415064,"lng":26.077318,"name":"Soseaua Progresului"},{"id":3585,"lat":44.413261,"lng":26.073835,"name":"Calea Ferentari"},{"id":3260,"lat":44.408463,"lng":26.0778,"name":"Soseaua Salaj"},{"id":3258,"lat":44.406357,"lng":26.079608,"name":"Cibinului"},{"id":3264,"lat":44.40327,"lng":26.081547,"name":"Armistitiului"},{"id":3618,"lat":44.401225,"lng":26.08352,"name":"Sulitei"},{"id":3159,"lat":44.398164,"lng":26.08488,"name":"Piata Ferentari"},{"id":3293,"lat":44.393004,"lng":26.08268,"name":"Vadul Nou"},{"id":3294,"lat":44.390085,"lng":26.080679,"name":"Valtoarei"},{"id":3289,"lat":44.386655,"lng":26.077945,"name":"Zetarilor"},{"id":3291,"lat":44.386198,"lng":26.077989,"name":"Zetarilor"},{"id":3304,"lat":44.389973,"lng":26.080679,"name":"Valtoarei"},{"id":3317,"lat":44.39286,"lng":26.082658,"name":"Vadul Nou"},{"id":3551,"lat":44.398613,"lng":26.084819,"name":"Piata Ferentari"},{"id":3619,"lat":44.401122,"lng":26.083688,"name":"Sulitei"},{"id":3549,"lat":44.403044,"lng":26.081757,"name":"Armistitiului"},{"id":3557,"lat":44.406214,"lng":26.079748,"name":"Cibinului"},{"id":3555,"lat":44.408074,"lng":26.078222,"name":"Soseaua Salaj"},{"id":3543,"lat":44.413512,"lng":26.074458,"name":"Calea Ferentari"},{"id":3190,"lat":44.416363,"lng":26.077728,"name":"Calea Rahovei"},{"id":3099,"lat":44.418403,"lng":26.075229,"name":"Inox"},{"id":3097,"lat":44.422967,"lng":26.069177,"name":"Calea 13 Septembrie"},{"id":3547,"lat":44.425343,"lng":26.066128,"name":"Aprodex"},{"id":3428,"lat":44.428835,"lng":26.06183,"name":"Piata Danny Huwe"},{"id":3444,"lat":44.428703,"lng":26.055069,"name":"Bd Vasile Milea"},{"id":3278,"lat":44.428374,"lng":26.048918,"name":"Sibiu"},{"id":3610,"lat":44.428005,"lng":26.039937,"name":"Sergent Moise"},{"id":3330,"lat":44.427292,"lng":26.03199,"name":"Brasov"},{"id":3375,"lat":44.427073,"lng":26.029279,"name":"Compasului"},{"id":3525,"lat":44.426584,"lng":26.02329,"name":"Romancierilor"},{"id":3533,"lat":44.426095,"lng":26.017367,"name":"Frigocom"},{"id":3531,"lat":44.424755,"lng":26.012358,"name":"Valea Oltului"},{"id":3358,"lat":44.424242,"lng":26.006059,"name":"Radox"},{"id":3521,"lat":44.423705,"lng":25.999767,"name":"Valea Cascadelor"},{"id":3524,"lat":44.42807,"lng":26.001469,"name":"C F R Cotroceni"},{"id":3178,"lat":44.431543,"lng":26.000798,"name":"Cesarom"},{"id":3168,"lat":44.430975,"lng":25.993843,"name":"Urbis"},{"id":3165,"lat":44.430595,"lng":25.989314,"name":"S C Vest"},{"id":3162,"lat":44.430063,"lng":25.983022,"name":"Inscut"},{"id":3172,"lat":44.429545,"lng":25.977195,"name":"Depoul Militari"},{"id":3492,"lat":44.383889,"lng":26.145737,"name":"Romprim"},{"id":3491,"lat":44.394348,"lng":26.119874,"name":"Piata Sudului"},{"id":3197,"lat":44.396024,"lng":26.115517,"name":"Husi"},{"id":3198,"lat":44.397984,"lng":26.110405,"name":"Bd Constantin Brancoveanu"},{"id":3192,"lat":44.400065,"lng":26.104542,"name":"Opris Ilie"},{"id":3194,"lat":44.401336,"lng":26.099791,"name":"Cimitirul Serban Voda"},{"id":3191,"lat":44.411333,"lng":26.083719,"name":"Spatarul Preda"},{"id":3445,"lat":44.435254,"lng":26.054427,"name":"Bd Iuliu Maniu"},{"id":3433,"lat":44.44262,"lng":26.06052,"name":"Pod Grozavesti"},{"id":3336,"lat":44.450147,"lng":26.06907,"name":"Pasajul Basarab"},{"id":3515,"lat":44.452594,"lng":26.074354,"name":"Bd Banu Manta"},{"id":3517,"lat":44.452113,"lng":26.080662,"name":"Dr Felix"},{"id":3226,"lat":44.452557,"lng":26.091974,"name":"Pasaj Victoria"},{"id":3118,"lat":44.452762,"lng":26.094609,"name":"Roma"},{"id":3125,"lat":44.452988,"lng":26.098384,"name":"Calea Dorobantilor"},{"id":3149,"lat":44.452962,"lng":26.104647,"name":"Stadion Dinamo"},{"id":3115,"lat":44.452874,"lng":26.111282,"name":"Vasile Lascar"},{"id":3161,"lat":44.4527,"lng":26.114718,"name":"Dr Grozovici"},{"id":3164,"lat":44.452104,"lng":26.119311,"name":"Lizeanu"},{"id":3251,"lat":44.44829,"lng":26.125671,"name":"Bucur Obor"},{"id":3274,"lat":44.443298,"lng":26.129856,"name":"Bd Ferdinand"},{"id":3147,"lat":44.441576,"lng":26.132852,"name":"Piata Iancului"},{"id":3395,"lat":44.437822,"lng":26.136197,"name":"Vatra Luminoasa"},{"id":3448,"lat":44.435167,"lng":26.13728,"name":"Mieilor"},{"id":3461,"lat":44.43098,"lng":26.138785,"name":"Piata Hurmuzachi"},{"id":3449,"lat":44.427946,"lng":26.138482,"name":"Gheorghe Petrascu"},{"id":3399,"lat":44.424741,"lng":26.137392,"name":"Baba Novac"},{"id":3398,"lat":44.419412,"lng":26.136246,"name":"Calea Dudesti"},{"id":3402,"lat":44.416955,"lng":26.134724,"name":"Laborator"},{"id":3401,"lat":44.415175,"lng":26.133017,"name":"Calea Vitan"},{"id":3400,"lat":44.411729,"lng":26.127142,"name":"Penes Curcanul"},{"id":3527,"lat":44.409409,"lng":26.122875,"name":"Pod Mihai Bravu"},{"id":3489,"lat":44.407916,"lng":26.12135,"name":"Pasaj Mihai Bravu"},{"id":3182,"lat":44.397633,"lng":26.120779,"name":"Pridvorului"},{"id":3478,"lat":44.383556,"lng":26.146222,"name":"Romprim"},{"id":3536,"lat":44.385869,"lng":26.078985,"name":"Zetarilor"},{"id":3625,"lat":44.38445,"lng":26.08065,"name":"Baciului"},{"id":3638,"lat":44.381822,"lng":26.084428,"name":"Cimitirul Progresul"},{"id":3637,"lat":44.378856,"lng":26.091317,"name":"Soseaua Giurgiului"},{"id":3435,"lat":44.447229,"lng":26.063138,"name":"Calea Plevnei"},{"id":3477,"lat":44.449784,"lng":26.061536,"name":"Spitalul Panait Sarbu"},{"id":3452,"lat":44.454229,"lng":26.057197,"name":"Opera Comica Pentru Copii"},{"id":3482,"lat":44.45773,"lng":26.053133,"name":"Cimitirul Calvin"},{"id":3480,"lat":44.460395,"lng":26.047283,"name":"George Valsan"},{"id":3493,"lat":44.463221,"lng":26.041826,"name":"Bd Constructorilor"},{"id":3494,"lat":44.46477,"lng":26.038926,"name":"Godeni"},{"id":3496,"lat":44.466285,"lng":26.035603,"name":"Piata Giulesti"},{"id":3497,"lat":44.467453,"lng":26.031779,"name":"Copsa Mica"},{"id":3498,"lat":44.468691,"lng":26.027801,"name":"Institutul Pasteur"},{"id":7704,"lat":44.469286,"lng":26.025919,"name":"Drumul la Rosu"},{"id":3499,"lat":44.470202,"lng":26.021808,"name":"Cartier 16 Februarie"},{"id":3500,"lat":44.47015,"lng":26.021897,"name":"Cartier 16 Februarie"},{"id":7703,"lat":44.469339,"lng":26.02563,"name":"Drumul la Rosu"},{"id":3459,"lat":44.468703,"lng":26.027604,"name":"Institutul Pasteur"},{"id":3457,"lat":44.467569,"lng":26.031287,"name":"Copsa Mica"},{"id":3455,"lat":44.46635,"lng":26.035218,"name":"Piata Giulesti"},{"id":3467,"lat":44.464949,"lng":26.038494,"name":"Godeni"},{"id":3468,"lat":44.463024,"lng":26.042085,"name":"Bd Constructorilor"},{"id":3465,"lat":44.460524,"lng":26.046917,"name":"George Valsan"},{"id":3466,"lat":44.457744,"lng":26.052939,"name":"Cimitirul Calvin"},{"id":3453,"lat":44.454533,"lng":26.056932,"name":"Opera Comica Pentru Copii"},{"id":3474,"lat":44.45016,"lng":26.060928,"name":"Spitalul Panait Sarbu"},{"id":3488,"lat":44.446984,"lng":26.0625,"name":"Calea Plevnei"},{"id":3647,"lat":44.3818,"lng":26.084526,"name":"Cimitirul Progresul"},{"id":3626,"lat":44.383846,"lng":26.081404,"name":"Baciului"},{"id":3352,"lat":44.386278,"lng":26.078242,"name":"Zetarilor"},{"id":3351,"lat":44.429859,"lng":26.107536,"name":"Piata Sf Vineri"},{"id":3269,"lat":44.432975,"lng":26.113699,"name":"Alexandru Sihleanu"},{"id":3379,"lat":44.43307,"lng":26.120544,"name":"Hala Traian"},{"id":3271,"lat":44.438353,"lng":26.120303,"name":"Bd Pache Protopopescu"},{"id":3309,"lat":44.441508,"lng":26.124161,"name":"Horei"},{"id":3310,"lat":44.444109,"lng":26.130061,"name":"Soseaua Mihai Bravu"},{"id":3431,"lat":44.445988,"lng":26.134246,"name":"Soseaua Pantelimon"},{"id":3364,"lat":44.444464,"lng":26.14096,"name":"Cimitirul Armenesc"},{"id":3311,"lat":44.443577,"lng":26.149324,"name":"Soseaua Iancului"},{"id":3281,"lat":44.442934,"lng":26.156917,"name":"Bd Chisinau"},{"id":3473,"lat":44.438736,"lng":26.158258,"name":"Pictor Harlescu"},{"id":3475,"lat":44.435179,"lng":26.159936,"name":"Bd Basarabia"},{"id":3313,"lat":44.435931,"lng":26.164082,"name":"Baia De Arama"},{"id":3314,"lat":44.436826,"lng":26.168029,"name":"Lucretiu Patrascanu"},{"id":3360,"lat":44.436412,"lng":26.172436,"name":"Bd 1 Decembrie 1918"},{"id":3282,"lat":44.43288,"lng":26.172476,"name":"Barajul Iezeru"},{"id":3283,"lat":44.430348,"lng":26.173366,"name":"Barajul Rovinari"},{"id":3387,"lat":44.426622,"lng":26.179002,"name":"Faur Poarta 4"},{"id":3501,"lat":44.427017,"lng":26.179599,"name":"Faur Poarta 4"},{"id":3279,"lat":44.430203,"lng":26.173482,"name":"Barajul Rovinari"},{"id":3275,"lat":44.432534,"lng":26.172651,"name":"Barajul Iezeru"},{"id":3276,"lat":44.435987,"lng":26.172881,"name":"Bd Basarabia"},{"id":3152,"lat":44.43698,"lng":26.168561,"name":"Soseaua Morarilor"},{"id":3301,"lat":44.436026,"lng":26.16418,"name":"Baia De Arama"},{"id":3302,"lat":44.435055,"lng":26.160456,"name":"Bd Nicolae Grigorescu"},{"id":3454,"lat":44.438114,"lng":26.158635,"name":"Pictor Harlescu"},{"id":3615,"lat":44.443026,"lng":26.156151,"name":"Bd Chisinau"},{"id":3285,"lat":44.4436,"lng":26.149516,"name":"Soseaua Iancului"},{"id":3365,"lat":44.444282,"lng":26.143252,"name":"Baicului"},{"id":3290,"lat":44.446041,"lng":26.135026,"name":"Bd Ferdinand"},{"id":3397,"lat":44.443492,"lng":26.128525,"name":"Soseaua Mihai Bravu"},{"id":3292,"lat":44.441749,"lng":26.124539,"name":"Horei"},{"id":3137,"lat":44.43926,"lng":26.120482,"name":"Bd Pache Protopopescu"},{"id":3595,"lat":44.433249,"lng":26.120877,"name":"Hala Traian"},{"id":3273,"lat":44.433298,"lng":26.116322,"name":"Piata Sf Stefan"},{"id":3593,"lat":44.431861,"lng":26.110581,"name":"Piata Corneliu Coposu"},{"id":3334,"lat":44.429179,"lng":26.107476,"name":"Piata Sf Vineri"},{"id":7681,"lat":44.432537,"lng":26.103862,"name":"Piata Sf. Gheorghe"},{"id":3344,"lat":44.433941,"lng":26.107598,"name":"Hristo Botev"},{"id":3210,"lat":44.436775,"lng":26.110371,"name":"Bd Carol I"},{"id":3195,"lat":44.439885,"lng":26.108757,"name":"Batistei"},{"id":3631,"lat":44.44211,"lng":26.109643,"name":"Maria Rosetti"},{"id":3193,"lat":44.44462,"lng":26.111134,"name":"Piata Gemeni"},{"id":3569,"lat":44.446563,"lng":26.113145,"name":"Mihai Eminescu"},{"id":3205,"lat":44.448849,"lng":26.116025,"name":"Toamnei"},{"id":3561,"lat":44.451657,"lng":26.119736,"name":"Soseaua Stefan Cel Mare"},{"id":3171,"lat":44.455049,"lng":26.121165,"name":"Reinvierii"},{"id":3374,"lat":44.459025,"lng":26.119984,"name":"Alexandru Cel Bun"},{"id":3562,"lat":44.461541,"lng":26.119207,"name":"Bd Lacul Tei"},{"id":3559,"lat":44.464209,"lng":26.125719,"name":"Teiul Doamnei"},{"id":3560,"lat":44.466491,"lng":26.127269,"name":"Lacul Tei"},{"id":3554,"lat":44.471788,"lng":26.124352,"name":"Strandul Tei"},{"id":3553,"lat":44.478512,"lng":26.125268,"name":"Soseaua Fabrica De Glucoza"},{"id":3392,"lat":44.482262,"lng":26.124705,"name":"Gelcap"},{"id":3552,"lat":44.482403,"lng":26.121536,"name":"Rocin"},{"id":3550,"lat":44.48067,"lng":26.115505,"name":"Electronica"},{"id":3558,"lat":44.479839,"lng":26.111041,"name":"Platforma Industriala Pipera"},{"id":3556,"lat":44.479382,"lng":26.110913,"name":"Platforma Industriala Pipera"},{"id":3607,"lat":44.480523,"lng":26.11517,"name":"Electronica"},{"id":3603,"lat":44.482357,"lng":26.121409,"name":"Rocin"},{"id":3393,"lat":44.482192,"lng":26.125028,"name":"Gelcap"},{"id":3604,"lat":44.478769,"lng":26.125239,"name":"Soseaua Fabrica De Glucoza"},{"id":3605,"lat":44.471756,"lng":26.124374,"name":"Strandul Tei"},{"id":3606,"lat":44.466576,"lng":26.127205,"name":"Lacul Tei"},{"id":3366,"lat":44.46452,"lng":26.125973,"name":"Bd Lacul Tei"},{"id":3600,"lat":44.461939,"lng":26.119348,"name":"Grigore Moisil"},{"id":3113,"lat":44.459131,"lng":26.119904,"name":"Alexandru Cel Bun"},{"id":3599,"lat":44.455524,"lng":26.121112,"name":"Reinvierii"},{"id":3447,"lat":44.451498,"lng":26.119528,"name":"Soseaua Stefan Cel Mare"},{"id":3202,"lat":44.449259,"lng":26.116504,"name":"Toamnei"},{"id":3602,"lat":44.446889,"lng":26.113448,"name":"Mihai Eminescu"},{"id":3601,"lat":44.444955,"lng":26.111241,"name":"Piata Gemeni"},{"id":3630,"lat":44.442471,"lng":26.109823,"name":"Maria Rosetti"},{"id":3122,"lat":44.440464,"lng":26.108669,"name":"Batistei"},{"id":3124,"lat":44.437172,"lng":26.110039,"name":"Bd Carol I"},{"id":3528,"lat":44.434385,"lng":26.10773,"name":"Hristo Botev"},{"id":3203,"lat":44.406315,"lng":26.201824,"name":"COMPLEX COMERCIAL TITAN"},{"id":3200,"lat":44.406858,"lng":26.19847,"name":"Chimopar"},{"id":3208,"lat":44.407928,"lng":26.191867,"name":"Policolor"},{"id":3206,"lat":44.408441,"lng":26.188632,"name":"Stirom"},{"id":3216,"lat":44.409335,"lng":26.182952,"name":"I O R 2"},{"id":3214,"lat":44.410244,"lng":26.177038,"name":"Ozana"},{"id":3218,"lat":44.410817,"lng":26.173105,"name":"Bd 1 Decembrie 1918"},{"id":3155,"lat":44.414342,"lng":26.173747,"name":"Oficiul Postal 72"},{"id":3359,"lat":44.417308,"lng":26.176098,"name":"Postavarului"},{"id":3460,"lat":44.423921,"lng":26.1757,"name":"Liviu Rebreanu"},{"id":3173,"lat":44.425317,"lng":26.167876,"name":"Barajul Dunarii"},{"id":3170,"lat":44.425031,"lng":26.163826,"name":"Bd Nicolae Grigorescu"},{"id":3380,"lat":44.424271,"lng":26.157984,"name":"Pod Lacuri"},{"id":3177,"lat":44.423356,"lng":26.151228,"name":"Soseaua Campia Libertatii"},{"id":3520,"lat":44.418029,"lng":26.14541,"name":"Piata Ramnicu Sarat"},{"id":3526,"lat":44.41936,"lng":26.14022,"name":"Dristorului"},{"id":3108,"lat":44.420123,"lng":26.137254,"name":"Soseaua Mihai Bravu"},{"id":3321,"lat":44.415379,"lng":26.132044,"name":"Calea Vitan"},{"id":3350,"lat":44.41759,"lng":26.128905,"name":"Zizin"},{"id":3339,"lat":44.419832,"lng":26.125911,"name":"Bucuresti Mall"},{"id":3390,"lat":44.42285,"lng":26.123732,"name":"Piata Vitan"},{"id":3110,"lat":44.423981,"lng":26.12201,"name":"Posta Vitan"},{"id":3409,"lat":44.423947,"lng":26.119194,"name":"Nerva Traian"},{"id":3300,"lat":44.421275,"lng":26.116647,"name":"Papazoglu"},{"id":3114,"lat":44.419399,"lng":26.115143,"name":"Scoala Generala 81"},{"id":3333,"lat":44.416413,"lng":26.112509,"name":"Universitatea Crestina 22 Dimitrie Cantemi"},{"id":3535,"lat":44.414339,"lng":26.105034,"name":"Colegiul National Gh Sincai"},{"id":3649,"lat":44.411398,"lng":26.100405,"name":"Adesgo"},{"id":3640,"lat":44.408803,"lng":26.096898,"name":"Cutitul De Argint"},{"id":3627,"lat":44.40591,"lng":26.09599,"name":"Cimitirul Eroii Revolutiei"},{"id":3188,"lat":44.409025,"lng":26.097251,"name":"Cutitul De Argint"},{"id":3100,"lat":44.41129,"lng":26.10034,"name":"Adesgo"},{"id":3534,"lat":44.414536,"lng":26.105407,"name":"Colegiul National Gh Sincai"},{"id":3377,"lat":44.416532,"lng":26.11281,"name":"Univ Crestina 22 22 Dimitrie Cantemir 22 22"},{"id":3120,"lat":44.41928,"lng":26.115128,"name":"Scoala Generala 81"},{"id":3297,"lat":44.421181,"lng":26.116657,"name":"Papazoglu"},{"id":3126,"lat":44.423491,"lng":26.118492,"name":"Bd Octavian Goga"},{"id":3383,"lat":44.423946,"lng":26.122691,"name":"Posta Vitan"},{"id":3391,"lat":44.422601,"lng":26.123827,"name":"Piata Vitan"},{"id":3338,"lat":44.419928,"lng":26.125774,"name":"Bucuresti Mall"},{"id":3341,"lat":44.417811,"lng":26.128517,"name":"Zizin"},{"id":3361,"lat":44.419919,"lng":26.137915,"name":"Soseaua Mihai Bravu"},{"id":3403,"lat":44.41918,"lng":26.14081,"name":"Dristorului"},{"id":3571,"lat":44.417829,"lng":26.14595,"name":"Piata Ramnicu Sarat"},{"id":3176,"lat":44.423083,"lng":26.150502,"name":"Soseaua Campia Libertatii"},{"id":3183,"lat":44.424202,"lng":26.157747,"name":"Pod Lacuri"},{"id":3180,"lat":44.424881,"lng":26.162827,"name":"Bd Nicolae Grigorescu"},{"id":3458,"lat":44.425331,"lng":26.166967,"name":"Barajul Dunarii"},{"id":3456,"lat":44.423809,"lng":26.176112,"name":"Bd 1 Decembrie 1918"},{"id":3349,"lat":44.417978,"lng":26.176122,"name":"Postavarului"},{"id":3227,"lat":44.413847,"lng":26.173534,"name":"Oficiul Postal 72"},{"id":3169,"lat":44.410683,"lng":26.173781,"name":"Bd 1 Decembrie 1918"},{"id":3167,"lat":44.410121,"lng":26.177588,"name":"Ozana"},{"id":3166,"lat":44.409209,"lng":26.183532,"name":"I O R 2"},{"id":3163,"lat":44.408307,"lng":26.189231,"name":"Stirom"},{"id":3184,"lat":44.407809,"lng":26.192387,"name":"Policolor"},{"id":3181,"lat":44.406715,"lng":26.199118,"name":"Chimopar"},{"id":3179,"lat":44.406391,"lng":26.201134,"name":"COMPLEX COMERCIAL TITAN"},{"id":3342,"lat":44.438534,"lng":26.114926,"name":"Bd Carol I"},{"id":3324,"lat":44.443312,"lng":26.119142,"name":"Mihai Eminescu"},{"id":3325,"lat":44.450537,"lng":26.125453,"name":"Bucur Obor"},{"id":3174,"lat":44.454235,"lng":26.128153,"name":"Ziduri Mosi"},{"id":3427,"lat":44.456613,"lng":26.129837,"name":"Teiul Doamnei"},{"id":3429,"lat":44.461631,"lng":26.132958,"name":"Doamna Ghica"},{"id":3424,"lat":44.466944,"lng":26.139104,"name":"Raul Colentina"},{"id":3425,"lat":44.468678,"lng":26.142902,"name":"Cartier Colentina"},{"id":3160,"lat":44.471502,"lng":26.150796,"name":"Sportului"},{"id":3439,"lat":44.473009,"lng":26.15374,"name":"Cornisor"},{"id":3438,"lat":44.475511,"lng":26.158623,"name":"Nicolae Canea"},{"id":3410,"lat":44.477483,"lng":26.163283,"name":"Pasaj Colentina"},{"id":3411,"lat":44.47766,"lng":26.163193,"name":"Pasaj Colentina"},{"id":3412,"lat":44.47576,"lng":26.159014,"name":"Nicolae Canea"},{"id":3413,"lat":44.473516,"lng":26.154626,"name":"Cornisor"},{"id":3414,"lat":44.471312,"lng":26.150347,"name":"Sportului"},{"id":3415,"lat":44.468484,"lng":26.142367,"name":"Cartier Colentina"},{"id":3416,"lat":44.467058,"lng":26.139256,"name":"Raul Colentina"},{"id":3417,"lat":44.462382,"lng":26.133229,"name":"Doamna Ghica"},{"id":3418,"lat":44.45742,"lng":26.130334,"name":"Teiul Doamnei"},{"id":3419,"lat":44.454064,"lng":26.127963,"name":"Ziduri Mosi"},{"id":3322,"lat":44.450224,"lng":26.125149,"name":"Bucur Obor"},{"id":3323,"lat":44.443805,"lng":26.11951,"name":"Mihai Eminescu"},{"id":3328,"lat":44.438024,"lng":26.114524,"name":"Bd Carol I"},{"id":7682,"lat":44.432692,"lng":26.106472,"name":"Piata Sf. Gheorghe"},{"id":3546,"lat":44.41607,"lng":26.079307,"name":"Soseaua Progresului"},{"id":3138,"lat":44.41748,"lng":26.08173,"name":"Piata Chirigiu"},{"id":3231,"lat":44.422011,"lng":26.091486,"name":"Piata Regina Maria"},{"id":3305,"lat":44.423852,"lng":26.095029,"name":"11 Iunie"},{"id":3512,"lat":44.418844,"lng":26.096643,"name":"Parcul Carol I"},{"id":3479,"lat":44.42105,"lng":26.103679,"name":"Bd Dimitrie Cantemir"},{"id":3476,"lat":44.422599,"lng":26.10852,"name":"Pasaj Marasesti"},{"id":3408,"lat":44.423918,"lng":26.118038,"name":"Nerva Traian"},{"id":3381,"lat":44.423449,"lng":26.127139,"name":"Policlinica Vitan"},{"id":3382,"lat":44.421859,"lng":26.13119,"name":"Depoul Dudesti"},{"id":3505,"lat":44.424572,"lng":26.177899,"name":"Liviu Rebreanu"},{"id":3354,"lat":44.424161,"lng":26.177473,"name":"Liviu Rebreanu"},{"id":3106,"lat":44.421602,"lng":26.13175,"name":"Depoul Dudesti"},{"id":3111,"lat":44.423455,"lng":26.127281,"name":"Policlinica Vitan"},{"id":3483,"lat":44.422599,"lng":26.108418,"name":"Pasaj Marasesti"},{"id":3481,"lat":44.42132,"lng":26.10436,"name":"Bd Dimitrie Cantemir"},{"id":3484,"lat":44.418689,"lng":26.09604,"name":"Parcul Carol I"},{"id":3228,"lat":44.421794,"lng":26.090994,"name":"Piata Regina Maria"},{"id":3128,"lat":44.417097,"lng":26.081077,"name":"Piata Chirigiu"},{"id":3237,"lat":44.488327,"lng":26.050732,"name":"Cartier Damaroaia"},{"id":3238,"lat":44.487366,"lng":26.046768,"name":"Izbiceni"},{"id":3248,"lat":44.485879,"lng":26.04438,"name":"Neatarnarii"},{"id":3254,"lat":44.48393,"lng":26.04122,"name":"Bd Bucurestii Noi"},{"id":3623,"lat":44.480306,"lng":26.042828,"name":"Pajurei"},{"id":3624,"lat":44.477194,"lng":26.045282,"name":"Depoul Bucurestii Noi"},{"id":3574,"lat":44.472291,"lng":26.049104,"name":"Carpati"},{"id":3224,"lat":44.471078,"lng":26.051762,"name":"Clabucet"},{"id":3133,"lat":44.468844,"lng":26.058819,"name":"Aviator Popisteanu"},{"id":3144,"lat":44.466122,"lng":26.065462,"name":"Piata Domenii"},{"id":3139,"lat":44.462371,"lng":26.072343,"name":"Bd Maresal Averescu"},{"id":3103,"lat":44.458251,"lng":26.077627,"name":"Piata Ion Mihalache"},{"id":3234,"lat":44.452456,"lng":26.084145,"name":"Piata Victoriei"},{"id":3388,"lat":44.448082,"lng":26.082468,"name":"Piata Buzesti"},{"id":3442,"lat":44.443387,"lng":26.081011,"name":"Mircea Vulcanescu"},{"id":3486,"lat":44.440276,"lng":26.081474,"name":"Radio Romania"},{"id":3440,"lat":44.436508,"lng":26.083859,"name":"Vasile Parvan"},{"id":3519,"lat":44.437418,"lng":26.087493,"name":"Cismigiu"},{"id":3331,"lat":44.438404,"lng":26.084609,"name":"Ostasilor"},{"id":3485,"lat":44.440681,"lng":26.08139,"name":"Radio Romania"},{"id":3441,"lat":44.442702,"lng":26.080954,"name":"Mircea Vulcanescu"},{"id":3236,"lat":44.447759,"lng":26.082342,"name":"Piata Buzesti"},{"id":3232,"lat":44.451625,"lng":26.084533,"name":"Piata Victoriei"},{"id":3316,"lat":44.457795,"lng":26.078243,"name":"Piata Ion Mihalache"},{"id":3320,"lat":44.462042,"lng":26.072834,"name":"Bd Maresal Averescu"},{"id":3132,"lat":44.465755,"lng":26.066475,"name":"Piata Domenii"},{"id":3131,"lat":44.468689,"lng":26.059291,"name":"Aviator Popisteanu"},{"id":3135,"lat":44.470948,"lng":26.052449,"name":"Clabucet"},{"id":3277,"lat":44.472556,"lng":26.048958,"name":"Carpati"},{"id":3185,"lat":44.477684,"lng":26.044953,"name":"Depoul Bucurestii Noi"},{"id":3186,"lat":44.480053,"lng":26.043094,"name":"Pajurei"},{"id":3187,"lat":44.483166,"lng":26.040664,"name":"Bd Gloriei"},{"id":3233,"lat":44.48538,"lng":26.043616,"name":"Neatarnarii"},{"id":3239,"lat":44.487119,"lng":26.046422,"name":"Izbiceni"},{"id":3240,"lat":44.488337,"lng":26.051406,"name":"Cartier Damaroaia"},{"id":3347,"lat":44.412206,"lng":26.167405,"name":"Dumbrava Noua"},{"id":3356,"lat":44.413253,"lng":26.162567,"name":"Piata Titan"},{"id":3109,"lat":44.413695,"lng":26.15714,"name":"Ilioara"},{"id":3143,"lat":44.414821,"lng":26.153596,"name":"Fizicienilor"},{"id":3150,"lat":44.41645,"lng":26.149614,"name":"Voluntarilor"},{"id":3153,"lat":44.416456,"lng":26.149445,"name":"Voluntarilor"},{"id":3107,"lat":44.414556,"lng":26.154111,"name":"Fizicienilor"},{"id":3105,"lat":44.413509,"lng":26.158475,"name":"Ilioara"},{"id":3355,"lat":44.412867,"lng":26.164754,"name":"Piata Titan"},{"id":3346,"lat":44.411997,"lng":26.168044,"name":"Dumbrava Noua"},{"id":3532,"lat":44.399215,"lng":26.046959,"name":"Depoul Alexandria 1"},{"id":3530,"lat":44.400447,"lng":26.050417,"name":"Antiaeriana"},{"id":3523,"lat":44.403326,"lng":26.057677,"name":"Margeanului"},{"id":3522,"lat":44.406836,"lng":26.064849,"name":"Piata Rahova"},{"id":3541,"lat":44.410498,"lng":26.070005,"name":"Petre Ispirescu"},{"id":3584,"lat":44.410131,"lng":26.069453,"name":"Petre Ispirescu"},{"id":3583,"lat":44.405699,"lng":26.063171,"name":"Piata Rahova"},{"id":3582,"lat":44.403124,"lng":26.057071,"name":"Margeanului"},{"id":3581,"lat":44.400372,"lng":26.050126,"name":"Antiaeriana"},{"id":3580,"lat":44.39901,"lng":26.046381,"name":"Depoul Alexandria 2"},{"id":3443,"lat":44.452921,"lng":26.07442,"name":"Bd Banu Manta"},{"id":3332,"lat":44.448127,"lng":26.064854,"name":"Calea Giulesti"},{"id":3509,"lat":44.449532,"lng":26.067908,"name":"Gara Basarab"},{"id":3101,"lat":44.449227,"lng":26.06723,"name":"Gara Basarab"},{"id":3511,"lat":44.447973,"lng":26.064422,"name":"Calea Giulesti"},{"id":3148,"lat":44.433417,"lng":26.186006,"name":"Republica"},{"id":3423,"lat":44.434365,"lng":26.183491,"name":"Faur"},{"id":3146,"lat":44.435082,"lng":26.178938,"name":"Grup Industrial Titan"},{"id":3329,"lat":44.436254,"lng":26.173384,"name":"Bd 1 Decembrie 1918"},{"id":3508,"lat":44.449014,"lng":26.131449,"name":"Piata Obor"},{"id":3343,"lat":44.453188,"lng":26.128052,"name":"Soseaua Colentina"},{"id":3247,"lat":44.453143,"lng":26.126023,"name":"Turmelor"},{"id":3158,"lat":44.455237,"lng":26.121623,"name":"Maica Domnului"},{"id":3502,"lat":44.452994,"lng":26.126293,"name":"Soseaua Colentina"},{"id":3514,"lat":44.448611,"lng":26.131736,"name":"Piata Obor"},{"id":3396,"lat":44.446411,"lng":26.134414,"name":"Bd Ferdinand"},{"id":3315,"lat":44.435134,"lng":26.178293,"name":"Grup Industrial Titan"},{"id":3308,"lat":44.434349,"lng":26.183351,"name":"Faur"},{"id":3378,"lat":44.433918,"lng":26.18534,"name":"Republica"},{"id":3386,"lat":44.426907,"lng":26.178984,"name":"Faur Poarta 4"},{"id":3507,"lat":44.433341,"lng":26.152573,"name":"Arena Nationala"},{"id":3299,"lat":44.433036,"lng":26.14902,"name":"Patinoar"},{"id":3295,"lat":44.432148,"lng":26.139201,"name":"Piata Hurmuzachi"},{"id":3230,"lat":44.431799,"lng":26.129887,"name":"Delea Veche"},{"id":3384,"lat":44.432376,"lng":26.125944,"name":"Universitatea Hyperion"},{"id":3229,"lat":44.43297,"lng":26.121406,"name":"Hala Traian"},{"id":3385,"lat":44.432393,"lng":26.125588,"name":"Universitatea Hyperion"},{"id":3306,"lat":44.431818,"lng":26.129528,"name":"Delea Veche"},{"id":3318,"lat":44.431885,"lng":26.137807,"name":"Piata Hurmuzachi"},{"id":3319,"lat":44.432944,"lng":26.148322,"name":"Patinoar"},{"id":3506,"lat":44.433341,"lng":26.15298,"name":"Arena Nationala"},{"id":3312,"lat":44.434827,"lng":26.159764,"name":"Bd Nicolae Grigorescu"},{"id":3265,"lat":44.475808,"lng":26.072252,"name":"Piata Presei"},{"id":3266,"lat":44.471599,"lng":26.072391,"name":"Agronomie"},{"id":3262,"lat":44.467673,"lng":26.074346,"name":"Casin"},{"id":3345,"lat":44.461735,"lng":26.072084,"name":"Bd Ion Mihalache"},{"id":3590,"lat":44.456967,"lng":26.066001,"name":"Pasaj Grant"},{"id":3363,"lat":44.453691,"lng":26.052104,"name":"Soseaua Crangasi"},{"id":3588,"lat":44.452242,"lng":26.047117,"name":"Piata Crangasi"},{"id":3405,"lat":44.445813,"lng":26.038256,"name":"Pod Ciurel"},{"id":3529,"lat":44.440267,"lng":26.035344,"name":"Orsova"},{"id":3372,"lat":44.436668,"lng":26.035133,"name":"Bd Uverturii"},{"id":3597,"lat":44.426792,"lng":26.033267,"name":"Bd Timisoara"},{"id":3263,"lat":44.422438,"lng":26.034457,"name":"Drumul Taberei"},{"id":3421,"lat":44.417488,"lng":26.034423,"name":"Parcul Drumul Taberei"},{"id":3348,"lat":44.414553,"lng":26.035006,"name":"Brasov"},{"id":3270,"lat":44.414685,"lng":26.046789,"name":"Ghencea"},{"id":3243,"lat":44.41511,"lng":26.045735,"name":"Ghencea"},{"id":3598,"lat":44.414809,"lng":26.034983,"name":"Brasov"},{"id":3420,"lat":44.418406,"lng":26.034446,"name":"Parcul Drumul Taberei"},{"id":3257,"lat":44.422768,"lng":26.034491,"name":"Drumul Taberei"},{"id":3596,"lat":44.427037,"lng":26.033237,"name":"Bd Timisoara"},{"id":3611,"lat":44.436916,"lng":26.035197,"name":"Bd Uverturii"},{"id":3563,"lat":44.440145,"lng":26.035383,"name":"Orsova"},{"id":3404,"lat":44.446042,"lng":26.038472,"name":"Pod Ciurel"},{"id":3609,"lat":44.452362,"lng":26.047362,"name":"Piata Crangasi"},{"id":3594,"lat":44.45373,"lng":26.052704,"name":"Pasaj Grant"},{"id":3592,"lat":44.456908,"lng":26.065932,"name":"Turda"},{"id":3259,"lat":44.462599,"lng":26.073186,"name":"Bd Ion Mihalache"},{"id":3255,"lat":44.468466,"lng":26.073988,"name":"Casin"},{"id":3256,"lat":44.471506,"lng":26.072478,"name":"Agronomie"},{"id":3175,"lat":44.475567,"lng":26.072606,"name":"Piata Presei"},{"id":3221,"lat":44.475763,"lng":26.072,"name":"Piata Presei"},{"id":3573,"lat":44.474478,"lng":26.066827,"name":"Universitatea Romano Americana"},{"id":3373,"lat":44.47329,"lng":26.058994,"name":"Bd Expozitiei"},{"id":3538,"lat":44.472784,"lng":26.055674,"name":"Grivita"},{"id":3513,"lat":44.471523,"lng":26.051841,"name":"Bd Ion Mihalache"},{"id":3199,"lat":44.448983,"lng":26.081806,"name":"Dr Felix"},{"id":3362,"lat":44.448028,"lng":26.076441,"name":"Gara De Nord"},{"id":3154,"lat":44.445833,"lng":26.081335,"name":"Buzesti"},{"id":3389,"lat":44.473152,"lng":26.053984,"name":"Grivita"},{"id":3422,"lat":44.473321,"lng":26.059381,"name":"Bd Expozitiei"},{"id":3572,"lat":44.474364,"lng":26.0663,"name":"Universitatea Romano Americana"},{"id":3394,"lat":44.475617,"lng":26.072815,"name":"Piata Presei"},{"id":3470,"lat":44.446065,"lng":26.073528,"name":"Gara De Nord"},{"id":3516,"lat":44.446219,"lng":26.073369,"name":"Gara De Nord"},{"id":3579,"lat":44.484806,"lng":26.023453,"name":"Mezes"},{"id":3578,"lat":44.482369,"lng":26.02984,"name":"Marmurei"},{"id":3577,"lat":44.480761,"lng":26.033839,"name":"Crinului"},{"id":3576,"lat":44.479085,"lng":26.038003,"name":"Minerva"},{"id":3463,"lat":44.477866,"lng":26.041045,"name":"Navigatiei"},{"id":3575,"lat":44.476699,"lng":26.045036,"name":"Bd Bucurestii Noi"},{"id":3246,"lat":44.476712,"lng":26.044584,"name":"Soseaua Chitilei"},{"id":3537,"lat":44.478021,"lng":26.040749,"name":"Navigatiei"},{"id":3249,"lat":44.479251,"lng":26.037695,"name":"Minerva"},{"id":3250,"lat":44.480923,"lng":26.033519,"name":"Crinului"},{"id":3253,"lat":44.482517,"lng":26.029567,"name":"Subcetate"},{"id":3241,"lat":44.485426,"lng":26.022909,"name":"Mezes"},{"id":3326,"lat":44.453877,"lng":26.080472,"name":"Dr Constantin Caracas"},{"id":3539,"lat":44.441482,"lng":26.135669,"name":"Piata Iancului"},{"id":3268,"lat":44.44213,"lng":26.141396,"name":"Lt Victor Manu"},{"id":3280,"lat":44.443028,"lng":26.149493,"name":"Bd Pierre De Coubertin"},{"id":3540,"lat":44.442978,"lng":26.14879,"name":"Bd Pierre De Coubertin"},{"id":3587,"lat":44.442085,"lng":26.140704,"name":"Lt Victor Manu"},{"id":3586,"lat":44.441404,"lng":26.134824,"name":"Piata Iancului"},{"id":3327,"lat":44.4537,"lng":26.080534,"name":"Dr Constantin Caracas"},{"id":3472,"lat":44.422104,"lng":26.070311,"name":"Calea 13 Septembrie"},{"id":3142,"lat":44.420362,"lng":26.064833,"name":"Sebastian"},{"id":3127,"lat":44.41849,"lng":26.059257,"name":"Drumul Sarii"},{"id":3130,"lat":44.41638,"lng":26.052424,"name":"Cimitirul Ghencea"},{"id":3287,"lat":44.415059,"lng":26.045745,"name":"Ghencea"},{"id":3141,"lat":44.414736,"lng":26.046789,"name":"Ghencea"},{"id":3245,"lat":44.416519,"lng":26.052975,"name":"Cimitirul Ghencea"},{"id":3261,"lat":44.418676,"lng":26.059914,"name":"Drumul Sarii"},{"id":3298,"lat":44.420562,"lng":26.065538,"name":"Sebastian"},{"id":3296,"lat":44.421834,"lng":26.070604,"name":"Soseaua Progresului"},{"id":3272,"lat":44.439461,"lng":26.123713,"name":"Scoala Iancului"},{"id":3267,"lat":44.440331,"lng":26.12839,"name":"Matasari"},{"id":3284,"lat":44.442442,"lng":26.166724,"name":"Soseaua Morarilor"},{"id":3286,"lat":44.442076,"lng":26.172152,"name":"Spitalul Sf Pantelimon"},{"id":3288,"lat":44.4406,"lng":26.182515,"name":"Granitul"},{"id":3613,"lat":44.440793,"lng":26.18172,"name":"Granitul"},{"id":3617,"lat":44.441948,"lng":26.174415,"name":"Spitalul Sf Pantelimon"},{"id":3616,"lat":44.442571,"lng":26.164714,"name":"Soseaua Fundeni"},{"id":3591,"lat":44.440532,"lng":26.129398,"name":"Matasari"},{"id":3589,"lat":44.439521,"lng":26.123877,"name":"Scoala Iancului"},{"id":3821,"lat":44.433698,"lng":25.998175,"name":"Master"},{"id":3793,"lat":44.43373,"lng":26.001631,"name":"Imprimeria Nationala"},{"id":3727,"lat":44.43371,"lng":26.007175,"name":"Autogara Militari"},{"id":3849,"lat":44.433824,"lng":26.01256,"name":"Apusului"},{"id":3800,"lat":44.433898,"lng":26.016645,"name":"Valea Lunga"},{"id":3852,"lat":44.433991,"lng":26.021597,"name":"Piata Gorjului"},{"id":3804,"lat":44.434042,"lng":26.025323,"name":"Rasaritului"},{"id":3837,"lat":44.434145,"lng":26.031157,"name":"Veteranilor"},{"id":3741,"lat":44.434151,"lng":26.03617,"name":"Lujerului"},{"id":3739,"lat":44.43423,"lng":26.042959,"name":"Liceul Tudor Vladimirescu"},{"id":3898,"lat":44.434338,"lng":26.049825,"name":"Universitatea Politehnica"},{"id":3723,"lat":44.434436,"lng":26.055484,"name":"Facultatea Electronica"},{"id":3879,"lat":44.434467,"lng":26.058093,"name":"Piata Leul"},{"id":3916,"lat":44.437625,"lng":26.068928,"name":"Carol Davila"},{"id":3939,"lat":44.438815,"lng":26.070776,"name":"Pod Cotroceni"},{"id":3823,"lat":44.439941,"lng":26.073214,"name":"Mircea Vulcanescu"},{"id":3759,"lat":44.437339,"lng":26.078523,"name":"Casa Studentilor"},{"id":3760,"lat":44.436816,"lng":26.08223,"name":"Vasile Parvan"},{"id":3923,"lat":44.434388,"lng":26.088186,"name":"Piata Mihail Kogalniceanu"},{"id":3897,"lat":44.434622,"lng":26.09436,"name":"Gradina Cismigiu"},{"id":3925,"lat":44.435263,"lng":26.101559,"name":"Universitate"},{"id":3896,"lat":44.435995,"lng":26.105255,"name":"Piata Rosetti"},{"id":3764,"lat":44.435874,"lng":26.103949,"name":"Teatrul National"},{"id":3689,"lat":44.435109,"lng":26.100032,"name":"Universitate"},{"id":3903,"lat":44.434706,"lng":26.093778,"name":"Gradina Cismigiu"},{"id":3681,"lat":44.43458,"lng":26.087069,"name":"Piata Mihail Kogalniceanu"},{"id":3737,"lat":44.434464,"lng":26.080721,"name":"Facultatea De Drept"},{"id":3691,"lat":44.436416,"lng":26.07441,"name":"Stirbei Voda"},{"id":3729,"lat":44.436408,"lng":26.065493,"name":"Gradina Botanica"},{"id":3791,"lat":44.434667,"lng":26.05811,"name":"Piata Leul"},{"id":3683,"lat":44.434583,"lng":26.052951,"name":"Bd G Ral Vasile Milea"},{"id":3901,"lat":44.434532,"lng":26.048351,"name":"Universitatea Politehnica"},{"id":3926,"lat":44.434405,"lng":26.04176,"name":"Liceul Tudor Vladimirescu"},{"id":3868,"lat":44.434341,"lng":26.033749,"name":"Lujerului"},{"id":3929,"lat":44.4343,"lng":26.028606,"name":"Veteranilor"},{"id":3803,"lat":44.434225,"lng":26.023415,"name":"Rasaritului"},{"id":3894,"lat":44.434214,"lng":26.021642,"name":"Piata Gorjului"},{"id":3907,"lat":44.434055,"lng":26.015428,"name":"Valea Lunga"},{"id":3856,"lat":44.434045,"lng":26.012252,"name":"Apusului"},{"id":3818,"lat":44.433926,"lng":26.005468,"name":"Valea Cascadelor"},{"id":3794,"lat":44.433881,"lng":26.000853,"name":"Imprimeria Nationala"},{"id":3817,"lat":44.43387,"lng":25.997248,"name":"Master"},{"id":3860,"lat":44.445651,"lng":26.074987,"name":"Gara De Nord"},{"id":3863,"lat":44.441928,"lng":26.071683,"name":"Witing"},{"id":3692,"lat":44.439138,"lng":26.070853,"name":"Pod Cotroceni"},{"id":3828,"lat":44.434308,"lng":25.991889,"name":"Nufarul"},{"id":3843,"lat":44.434743,"lng":25.986463,"name":"Metro Militari"},{"id":3831,"lat":44.435116,"lng":25.982235,"name":"Victoria"},{"id":3864,"lat":44.43568,"lng":25.975614,"name":"Grup Scolar Auto"},{"id":3816,"lat":44.435466,"lng":25.976221,"name":"Grup Scolar Auto"},{"id":3815,"lat":44.434844,"lng":25.983442,"name":"Victoria"},{"id":3845,"lat":44.434456,"lng":25.987965,"name":"Metro Militari"},{"id":3822,"lat":44.434056,"lng":25.992742,"name":"Nufarul"},{"id":3735,"lat":44.440086,"lng":26.072568,"name":"Calea Plevnei"},{"id":3936,"lat":44.44225,"lng":26.078042,"name":"Bd Dinicu Golescu"},{"id":3937,"lat":44.444742,"lng":26.07822,"name":"Ministerul Transporturilor"},{"id":3750,"lat":44.482879,"lng":26.055647,"name":"Dridu"},{"id":3756,"lat":44.482749,"lng":26.051486,"name":"Faurei"},{"id":3754,"lat":44.482223,"lng":26.048,"name":"Piata Pajura"},{"id":3747,"lat":44.479769,"lng":26.043172,"name":"Pajurei"},{"id":3746,"lat":44.477253,"lng":26.045125,"name":"Soseaua Chitilei"},{"id":3748,"lat":44.472863,"lng":26.04851,"name":"Carpati"},{"id":3799,"lat":44.470527,"lng":26.0504,"name":"Clabucet"},{"id":3850,"lat":44.468033,"lng":26.052355,"name":"R A R"},{"id":3798,"lat":44.465596,"lng":26.05426,"name":"Lainici"},{"id":3920,"lat":44.463569,"lng":26.055806,"name":"Kiev"},{"id":3918,"lat":44.461062,"lng":26.057765,"name":"Griro"},{"id":3921,"lat":44.459252,"lng":26.059179,"name":"Caraiman"},{"id":3931,"lat":44.457532,"lng":26.060519,"name":"Cimitirul Sfanta Vineri"},{"id":3932,"lat":44.455755,"lng":26.061928,"name":"Pasaj Grant"},{"id":3795,"lat":44.452659,"lng":26.065686,"name":"Stoica Ludescu"},{"id":3733,"lat":44.450255,"lng":26.069515,"name":"Soseaua Nicolae Titulescu"},{"id":3734,"lat":44.448071,"lng":26.074272,"name":"Gara De Nord"},{"id":3745,"lat":44.447202,"lng":26.078618,"name":"Polizu"},{"id":3740,"lat":44.44788,"lng":26.081218,"name":"Piata Buzesti"},{"id":3809,"lat":44.446999,"lng":26.086951,"name":"Sfintii Voievozi"},{"id":3719,"lat":44.447776,"lng":26.083105,"name":"Piata Buzesti"},{"id":3698,"lat":44.44723,"lng":26.07827,"name":"Calea Grivitei"},{"id":3783,"lat":44.448273,"lng":26.074164,"name":"Gara De Nord"},{"id":3736,"lat":44.450741,"lng":26.068975,"name":"Nicolae Titulescu"},{"id":3792,"lat":44.453663,"lng":26.06441,"name":"Stoica Ludescu"},{"id":3738,"lat":44.456291,"lng":26.061798,"name":"Pasaj Grant"},{"id":3659,"lat":44.458476,"lng":26.060012,"name":"Cimitirul Sfanta Vineri"},{"id":3656,"lat":44.460263,"lng":26.058633,"name":"Caraiman"},{"id":3933,"lat":44.461996,"lng":26.057295,"name":"Griro"},{"id":3934,"lat":44.464526,"lng":26.055298,"name":"Kiev"},{"id":3935,"lat":44.466355,"lng":26.053877,"name":"Lainici"},{"id":3732,"lat":44.468813,"lng":26.05198,"name":"R A R"},{"id":3905,"lat":44.470605,"lng":26.050561,"name":"Clabucet"},{"id":3686,"lat":44.473135,"lng":26.048636,"name":"Carpati"},{"id":3687,"lat":44.478033,"lng":26.04476,"name":"Depoul Bucurestii Noi"},{"id":3742,"lat":44.480534,"lng":26.043792,"name":"Pajurei"},{"id":3744,"lat":44.482476,"lng":26.049685,"name":"Piata Pajura"},{"id":3743,"lat":44.48278,"lng":26.052135,"name":"Faurei"},{"id":3752,"lat":44.482465,"lng":26.055407,"name":"Dridu"},{"id":3786,"lat":44.466795,"lng":26.156233,"name":"Spitalul Fundeni"},{"id":3758,"lat":44.468851,"lng":26.153285,"name":"Balotului"},{"id":3912,"lat":44.470909,"lng":26.149363,"name":"Sportului"},{"id":3909,"lat":44.468565,"lng":26.142215,"name":"Cartier Colentina"},{"id":3910,"lat":44.466195,"lng":26.13732,"name":"Raul Colentina"},{"id":3812,"lat":44.464381,"lng":26.13453,"name":"Cremenita 28 Piata Colentina 29"},{"id":3904,"lat":44.460536,"lng":26.132333,"name":"Doamna Ghica"},{"id":3908,"lat":44.45606,"lng":26.129286,"name":"Teiul Doamnei"},{"id":3684,"lat":44.450779,"lng":26.125474,"name":"Bucur Obor"},{"id":3685,"lat":44.44687,"lng":26.122465,"name":"Fainari"},{"id":3869,"lat":44.444536,"lng":26.12011,"name":"Mihai Eminescu"},{"id":3867,"lat":44.438755,"lng":26.114888,"name":"Bd Carol I"},{"id":3866,"lat":44.437093,"lng":26.110576,"name":"Armeneasca"},{"id":3827,"lat":44.436783,"lng":26.109565,"name":"Armeneasca"},{"id":3806,"lat":44.438888,"lng":26.115292,"name":"Calea Mosilor"},{"id":3871,"lat":44.44406,"lng":26.11995,"name":"Mihai Eminescu"},{"id":3870,"lat":44.447438,"lng":26.123161,"name":"Fainari"},{"id":3940,"lat":44.450632,"lng":26.125716,"name":"Bucur Obor"},{"id":3919,"lat":44.454685,"lng":26.128651,"name":"Ziduri Mosi"},{"id":3922,"lat":44.458489,"lng":26.131244,"name":"Suveica"},{"id":3942,"lat":44.463034,"lng":26.133808,"name":"Doamna Ghica"},{"id":3813,"lat":44.464825,"lng":26.13544,"name":"Cremenita 28 Piata Colentina 29"},{"id":3943,"lat":44.467206,"lng":26.139827,"name":"Raul Colentina"},{"id":3805,"lat":44.469592,"lng":26.145744,"name":"Cartier Colentina"},{"id":3895,"lat":44.470745,"lng":26.15056,"name":"Sportului"},{"id":3807,"lat":44.468325,"lng":26.153965,"name":"Balotului"},{"id":3917,"lat":44.415692,"lng":26.01568,"name":"Valea Argesului"},{"id":3857,"lat":44.416736,"lng":26.021735,"name":"Drumul Taberei 98"},{"id":3789,"lat":44.416126,"lng":26.02477,"name":"Aleea Vlasiei"},{"id":3790,"lat":44.417801,"lng":26.028395,"name":"Liceul Eugen Lovinescu"},{"id":3653,"lat":44.417774,"lng":26.03535,"name":"1 Mai"},{"id":3875,"lat":44.41858,"lng":26.04252,"name":"Drumetul"},{"id":3874,"lat":44.420207,"lng":26.048147,"name":"Sibiu"},{"id":3876,"lat":44.422604,"lng":26.047514,"name":"Favorit"},{"id":3706,"lat":44.425433,"lng":26.053465,"name":"Orizont"},{"id":3927,"lat":44.427996,"lng":26.05475,"name":"Bd Timisoara"},{"id":3855,"lat":44.433513,"lng":26.054474,"name":"Bd Iuliu Maniu"},{"id":3899,"lat":44.43784,"lng":26.115295,"name":"Calea Mosilor"},{"id":3865,"lat":44.440425,"lng":26.121685,"name":"Foisorul De Foc"},{"id":3847,"lat":44.443289,"lng":26.128286,"name":"Soseaua Mihai Bravu"},{"id":3722,"lat":44.445386,"lng":26.133025,"name":"Avrig"},{"id":3848,"lat":44.446726,"lng":26.136039,"name":"Soseaua Pantelimon"},{"id":3846,"lat":44.448253,"lng":26.140556,"name":"Gara Obor"},{"id":3844,"lat":44.447364,"lng":26.142808,"name":"Baicului"},{"id":3884,"lat":44.447399,"lng":26.143082,"name":"Baicului"},{"id":3885,"lat":44.448631,"lng":26.140417,"name":"Gara Obor"},{"id":3882,"lat":44.445941,"lng":26.133936,"name":"Soseaua Pantelimon"},{"id":3883,"lat":44.444468,"lng":26.130544,"name":"Soseaua Mihai Bravu"},{"id":3886,"lat":44.442941,"lng":26.12711,"name":"Oborul Nou"},{"id":3887,"lat":44.439828,"lng":26.120061,"name":"Foisorul De Foc"},{"id":3694,"lat":44.437934,"lng":26.115002,"name":"Calea Mosilor"},{"id":3861,"lat":44.433352,"lng":26.054247,"name":"Bd Iuliu Maniu"},{"id":3858,"lat":44.429975,"lng":26.054335,"name":"Bd Timisoara"},{"id":3676,"lat":44.42541,"lng":26.051731,"name":"Orizont"},{"id":3944,"lat":44.423254,"lng":26.047179,"name":"Favorit"},{"id":3654,"lat":44.419406,"lng":26.047093,"name":"1 Mai"},{"id":3913,"lat":44.418495,"lng":26.041466,"name":"Drumetul"},{"id":3680,"lat":44.418246,"lng":26.033275,"name":"Parcul Drumul Taberei"},{"id":3819,"lat":44.41746,"lng":26.02742,"name":"Liceul Eugen Lovinescu"},{"id":3825,"lat":44.416352,"lng":26.024922,"name":"Raul Doamnei"},{"id":3773,"lat":44.416863,"lng":26.020497,"name":"Posta"},{"id":3900,"lat":44.416005,"lng":26.016416,"name":"Valea Argesului"},{"id":7714,"lat":44.436702,"lng":26.170046,"name":"Bd. Basarabia Capat"},{"id":3751,"lat":44.435175,"lng":26.169065,"name":"Bd Basarabia"},{"id":3862,"lat":44.432857,"lng":26.168132,"name":"Liceul Nichita Stanescu"},{"id":3755,"lat":44.430085,"lng":26.166159,"name":"Constantin Brancusi"},{"id":3716,"lat":44.429123,"lng":26.160921,"name":"Bd Nicolae Grigorescu"},{"id":3715,"lat":44.428833,"lng":26.155893,"name":"I O R"},{"id":3720,"lat":44.426249,"lng":26.150447,"name":"Soseaua Campia Libertatii"},{"id":3718,"lat":44.4252,"lng":26.143708,"name":"Ion Tuculescu"},{"id":3704,"lat":44.424391,"lng":26.138253,"name":"Soseaua Mihai Bravu"},{"id":3820,"lat":44.425875,"lng":26.136077,"name":"Amazoanei"},{"id":3703,"lat":44.428697,"lng":26.132292,"name":"Bd Decebal"},{"id":3700,"lat":44.431455,"lng":26.129824,"name":"Calea Calarasilor"},{"id":3814,"lat":44.433885,"lng":26.127356,"name":"Biserica Delea Veche"},{"id":3699,"lat":44.435311,"lng":26.125667,"name":"Tepes Voda"},{"id":3696,"lat":44.438796,"lng":26.122922,"name":"Matei Voievod"},{"id":3695,"lat":44.438755,"lng":26.11967,"name":"Traian"},{"id":3682,"lat":44.434798,"lng":26.088037,"name":"Piata Mihail Kogalniceanu"},{"id":3675,"lat":44.436243,"lng":26.083949,"name":"Vasile Parvan"},{"id":3902,"lat":44.438688,"lng":26.119722,"name":"Traian"},{"id":3891,"lat":44.438477,"lng":26.123056,"name":"Matei Voievod"},{"id":3892,"lat":44.435604,"lng":26.125066,"name":"Tepes Voda"},{"id":3811,"lat":44.433553,"lng":26.127719,"name":"Biserica Delea Veche"},{"id":3893,"lat":44.431993,"lng":26.129483,"name":"Calea Calarasilor"},{"id":3762,"lat":44.429418,"lng":26.130831,"name":"Invingatorilor"},{"id":3906,"lat":44.427955,"lng":26.133139,"name":"Bd Decebal"},{"id":3889,"lat":44.424824,"lng":26.136895,"name":"Soseaua Mihai Bravu"},{"id":3880,"lat":44.425219,"lng":26.144886,"name":"Ion Tuculescu"},{"id":3881,"lat":44.425938,"lng":26.149682,"name":"Soseaua Campia Libertatii"},{"id":3877,"lat":44.428628,"lng":26.155572,"name":"I O R"},{"id":3878,"lat":44.429451,"lng":26.16311,"name":"Bd Nicolae Grigorescu"},{"id":3749,"lat":44.430626,"lng":26.16734,"name":"Lucretiu Patrascanu"},{"id":3859,"lat":44.433336,"lng":26.168422,"name":"Liceul Nichita Stanescu"},{"id":3753,"lat":44.435617,"lng":26.169369,"name":"Bd Basarabia"},{"id":3836,"lat":44.377554,"lng":26.119764,"name":"Turnu Magurele"},{"id":3796,"lat":44.379205,"lng":26.118185,"name":"Aliorului"},{"id":3834,"lat":44.381871,"lng":26.115682,"name":"Straduintei"},{"id":3833,"lat":44.38565,"lng":26.11631,"name":"Dragos Mladinovici"},{"id":3830,"lat":44.388428,"lng":26.11806,"name":"Emil Racovita"},{"id":3829,"lat":44.392497,"lng":26.120686,"name":"Piata Sudului"},{"id":3668,"lat":44.394829,"lng":26.120908,"name":"Soseaua Oltenitei"},{"id":3671,"lat":44.399978,"lng":26.121133,"name":"Pridvorului"},{"id":3854,"lat":44.404039,"lng":26.121252,"name":"Costache Stamate"},{"id":3924,"lat":44.407973,"lng":26.1203,"name":"Bd Tineretului"},{"id":3824,"lat":44.408504,"lng":26.116031,"name":"Palatul National Al Copiilor"},{"id":3669,"lat":44.409689,"lng":26.112226,"name":"Parcul Tineretului"},{"id":3688,"lat":44.410758,"lng":26.110056,"name":"Visana"},{"id":3782,"lat":44.415115,"lng":26.104584,"name":"Colegiul National Gh Sincai"},{"id":3678,"lat":44.420401,"lng":26.104208,"name":"Bd Marasesti"},{"id":3788,"lat":44.424839,"lng":26.103897,"name":"Piata Unirii"},{"id":3667,"lat":44.420251,"lng":26.103899,"name":"Bd Marasesti"},{"id":3784,"lat":44.413271,"lng":26.105298,"name":"Colegiul National Gh Sincai"},{"id":3670,"lat":44.409153,"lng":26.112966,"name":"Palatul National Al Copiilor"},{"id":3781,"lat":44.407896,"lng":26.120068,"name":"Soseaua Mihai Bravu"},{"id":3797,"lat":44.404258,"lng":26.120946,"name":"Costache Stamate"},{"id":3673,"lat":44.399343,"lng":26.120781,"name":"Pridvorului"},{"id":3726,"lat":44.393251,"lng":26.120604,"name":"Piata Sudului"},{"id":3664,"lat":44.388001,"lng":26.117487,"name":"Bd Alexandru Obregia"},{"id":3662,"lat":44.385342,"lng":26.115816,"name":"Dragos Mladinovici"},{"id":3663,"lat":44.381653,"lng":26.11557,"name":"Straduintei"},{"id":3757,"lat":44.378792,"lng":26.11834,"name":"Aliorului"},{"id":3808,"lat":44.37716,"lng":26.119539,"name":"Turnu Magurele"},{"id":3672,"lat":44.377291,"lng":26.121731,"name":"Bd Alexandru Obregia"},{"id":3730,"lat":44.378178,"lng":26.124343,"name":"Ciceu"},{"id":3787,"lat":44.379967,"lng":26.126935,"name":"Aleea Raul Targului"},{"id":3853,"lat":44.382694,"lng":26.124423,"name":"Aliorului"},{"id":3890,"lat":44.385009,"lng":26.122238,"name":"Spitalul Dr Alexandru Obregia"},{"id":3674,"lat":44.388635,"lng":26.118845,"name":"Nitu Vasile"},{"id":3725,"lat":44.388298,"lng":26.11901,"name":"Emil Racovita"},{"id":3888,"lat":44.384674,"lng":26.122369,"name":"Spitalul Dr Alexandru Obregia"},{"id":3721,"lat":44.382295,"lng":26.124625,"name":"Aliorului"},{"id":3724,"lat":44.380472,"lng":26.126396,"name":"Aleea Raul Targului"},{"id":3872,"lat":44.378112,"lng":26.123825,"name":"Ciceu"},{"id":3658,"lat":44.377095,"lng":26.120941,"name":"Bd Alexandru Obregia"},{"id":3665,"lat":44.379805,"lng":26.099217,"name":"Piata Resita"},{"id":3778,"lat":44.384136,"lng":26.10119,"name":"Straja"},{"id":3851,"lat":44.388338,"lng":26.105454,"name":"Izvorul Rece"},{"id":3777,"lat":44.387567,"lng":26.109211,"name":"Bd Constantin Brancoveanu"},{"id":3779,"lat":44.38888,"lng":26.117245,"name":"Bd Alexandru Obregia"},{"id":3775,"lat":44.388574,"lng":26.11627,"name":"Bd Alexandru Obregia"},{"id":3774,"lat":44.387588,"lng":26.109508,"name":"Bd Constantin Brancoveanu"},{"id":3810,"lat":44.388355,"lng":26.104461,"name":"Resita"},{"id":3776,"lat":44.385135,"lng":26.101948,"name":"Straja"},{"id":3731,"lat":44.379459,"lng":26.099052,"name":"Piata Resita"},{"id":3660,"lat":44.440597,"lng":26.120851,"name":"Foisorul De Foc"},{"id":3661,"lat":44.444094,"lng":26.117901,"name":"Calea Mosilor"},{"id":3657,"lat":44.445253,"lng":26.113054,"name":"Piata Gemeni"},{"id":3941,"lat":44.446168,"lng":26.107733,"name":"Piata Spaniei"},{"id":3873,"lat":44.446906,"lng":26.099719,"name":"Calea Dorobantilor"},{"id":3714,"lat":44.447199,"lng":26.097025,"name":"Piata Romana"},{"id":3679,"lat":44.448575,"lng":26.089543,"name":"Calea Victoriei"},{"id":3701,"lat":44.447866,"lng":26.076369,"name":"Gara De Nord"},{"id":3702,"lat":44.449656,"lng":26.078367,"name":"Bd Alexandru Ioan Cuza"},{"id":3717,"lat":44.448259,"lng":26.089001,"name":"Calea Victoriei"},{"id":3826,"lat":44.447485,"lng":26.095387,"name":"Piata Romana"},{"id":3763,"lat":44.446701,"lng":26.100894,"name":"Colegiul Economic Virgil Madgearu"},{"id":3938,"lat":44.445938,"lng":26.108812,"name":"Piata Spaniei"},{"id":3915,"lat":44.445301,"lng":26.112175,"name":"Piata Gemeni"},{"id":3708,"lat":44.443681,"lng":26.118707,"name":"Calea Mosilor"},{"id":3770,"lat":44.441078,"lng":26.120548,"name":"Foisorul De Foc"},{"id":3801,"lat":44.437,"lng":26.0823,"name":"Berzei"},{"id":3928,"lat":44.437263,"lng":26.079213,"name":"Casa Studentilor"},{"id":3666,"lat":44.440173,"lng":26.073169,"name":"Mircea Vulcanescu"},{"id":3767,"lat":44.439616,"lng":26.150973,"name":"Arena Nationala"},{"id":3842,"lat":44.44103,"lng":26.149794,"name":"Bd Pierre De Coubertin"},{"id":3841,"lat":44.440033,"lng":26.145833,"name":"Aura Buzescu"},{"id":3840,"lat":44.438666,"lng":26.140625,"name":"Lt Victor Manu"},{"id":3728,"lat":44.437748,"lng":26.137138,"name":"Soseaua Mihai Bravu"},{"id":3839,"lat":44.43738,"lng":26.132893,"name":"Agricultorilor"},{"id":3693,"lat":44.437791,"lng":26.127816,"name":"Mecet"},{"id":3838,"lat":44.438874,"lng":26.123258,"name":"Scoala Iancului"},{"id":3709,"lat":44.438677,"lng":26.124069,"name":"Scoala Iancului"},{"id":3690,"lat":44.437667,"lng":26.128088,"name":"Mecet"},{"id":3710,"lat":44.437334,"lng":26.132894,"name":"Agricultorilor"},{"id":3711,"lat":44.437802,"lng":26.137438,"name":"Soseaua Mihai Bravu"},{"id":3712,"lat":44.438533,"lng":26.1405,"name":"Lt Victor Manu"},{"id":3771,"lat":44.439228,"lng":26.143051,"name":"Dumitru Marinescu"},{"id":3713,"lat":44.439941,"lng":26.14586,"name":"Aura Buzescu"},{"id":3705,"lat":44.440968,"lng":26.150093,"name":"Bd Pierre De Coubertin"},{"id":3768,"lat":44.439658,"lng":26.150423,"name":"Arena Nationala"},{"id":3911,"lat":44.398613,"lng":26.044497,"name":"Depoul Alexandria Capat"},{"id":3930,"lat":44.40226,"lng":26.050729,"name":"Tacerii"},{"id":3835,"lat":44.408896,"lng":26.054015,"name":"Manea Serban"},{"id":3766,"lat":44.411825,"lng":26.05546,"name":"Trimbitei"},{"id":3707,"lat":44.415821,"lng":26.057409,"name":"Piata 13 Septembrie"},{"id":3802,"lat":44.41796,"lng":26.058635,"name":"Calea 13 Septembrie"},{"id":3765,"lat":44.421288,"lng":26.059405,"name":"Nabucului"},{"id":3677,"lat":44.426057,"lng":26.056969,"name":"Lt Nicolae Gaina"},{"id":3914,"lat":44.425964,"lng":26.057485,"name":"Lt Nicolae Gaina"},{"id":3780,"lat":44.425523,"lng":26.059929,"name":"Drumul Sarii"},{"id":3761,"lat":44.420683,"lng":26.059238,"name":"Nabucului"},{"id":3772,"lat":44.417093,"lng":26.057906,"name":"Calea 13 Septembrie"},{"id":3655,"lat":44.4154,"lng":26.057084,"name":"Piata 13 Septembrie"},{"id":3697,"lat":44.411181,"lng":26.055006,"name":"Trambitei"},{"id":3832,"lat":44.408325,"lng":26.053587,"name":"Manea Serban"},{"id":3769,"lat":44.402842,"lng":26.050893,"name":"Tacerii"},{"id":3785,"lat":44.398134,"lng":26.044427,"name":"Depoul Alexandria 3"},{"id":7775,"lat":44.503364,"lng":26.024194,"name":"Straulesti"},{"id":5945,"lat":44.500157,"lng":26.027286,"name":"Cimitirul Straulesti"},{"id":6647,"lat":44.497326,"lng":26.029504,"name":"Precizia"},{"id":5942,"lat":44.494893,"lng":26.031346,"name":"Laromet"},{"id":6837,"lat":44.491296,"lng":26.034194,"name":"Jimbolia"},{"id":6903,"lat":44.487733,"lng":26.036953,"name":"Parcul Bazilescu"},{"id":7262,"lat":44.485341,"lng":26.038825,"name":"Teatrul Masca"},{"id":6648,"lat":44.482965,"lng":26.040646,"name":"Bd Gloriei"},{"id":6457,"lat":44.480608,"lng":26.042773,"name":"Pajurei"},{"id":6848,"lat":44.483793,"lng":26.040284,"name":"Bd Gloriei"},{"id":7263,"lat":44.486183,"lng":26.038417,"name":"Teatrul Masca"},{"id":6906,"lat":44.488548,"lng":26.036611,"name":"Parcul Bazilescu"},{"id":6842,"lat":44.492486,"lng":26.033526,"name":"Jimbolia"},{"id":6560,"lat":44.495173,"lng":26.031464,"name":"Laromet"},{"id":6233,"lat":44.497979,"lng":26.029252,"name":"Precizia"},{"id":6561,"lat":44.500824,"lng":26.027051,"name":"Cimitirul Straulesti"},{"id":7774,"lat":44.503825,"lng":26.024707,"name":"Straulesti"},{"id":7159,"lat":44.45055,"lng":26.130087,"name":"Piata Obor"},{"id":7476,"lat":44.445876,"lng":26.135082,"name":"Soseaua Pantelimon"},{"id":7618,"lat":44.444115,"lng":26.143825,"name":"Baicului"},{"id":7617,"lat":44.443202,"lng":26.152599,"name":"Soseaua Iancului"},{"id":7608,"lat":44.442028,"lng":26.157201,"name":"Bd Chisinau"},{"id":6274,"lat":44.43797,"lng":26.158548,"name":"Pictor Harlescu"},{"id":7622,"lat":44.434292,"lng":26.160152,"name":"Bd Nicolae Grigorescu"},{"id":5974,"lat":44.428587,"lng":26.162212,"name":"Parcul Titan"},{"id":7235,"lat":44.424448,"lng":26.163273,"name":"Liviu Rebreanu"},{"id":7627,"lat":44.420528,"lng":26.164303,"name":"Policlinica Titan"},{"id":7628,"lat":44.417165,"lng":26.164913,"name":"Postavarului"},{"id":6275,"lat":44.415946,"lng":26.166884,"name":"Sold Mihale Stelian"},{"id":7629,"lat":44.41739,"lng":26.172154,"name":"Codrii Neamtului"},{"id":7603,"lat":44.417991,"lng":26.176306,"name":"Bd 1 Decembrie 1918"},{"id":7568,"lat":44.423749,"lng":26.177367,"name":"Complex Comercial Titan"},{"id":6919,"lat":44.426425,"lng":26.179851,"name":"Faur"},{"id":7590,"lat":44.42624,"lng":26.178939,"name":"Faur"},{"id":7589,"lat":44.423252,"lng":26.176578,"name":"Complex Comercial Titan"},{"id":7554,"lat":44.41862,"lng":26.176031,"name":"Bd 1 Decembrie 1918"},{"id":7552,"lat":44.41742,"lng":26.17108,"name":"Codrii Neamtului"},{"id":7553,"lat":44.415918,"lng":26.166249,"name":"Bd Nicolae Grigorescu"},{"id":7557,"lat":44.417705,"lng":26.165225,"name":"Postavarului"},{"id":7558,"lat":44.420519,"lng":26.164628,"name":"Policlinica Titan"},{"id":5980,"lat":44.425708,"lng":26.163301,"name":"Liviu Rebreanu"},{"id":7556,"lat":44.429724,"lng":26.162119,"name":"Constantin Brancusi"},{"id":7560,"lat":44.435854,"lng":26.159775,"name":"Bd Basarabia"},{"id":7563,"lat":44.439333,"lng":26.158165,"name":"Pictor Harlescu"},{"id":7620,"lat":44.443131,"lng":26.156115,"name":"Bd Chisinau"},{"id":7650,"lat":44.443808,"lng":26.148526,"name":"Soseaua Iancului"},{"id":7651,"lat":44.444435,"lng":26.142502,"name":"Baicului"},{"id":6467,"lat":44.445988,"lng":26.126987,"name":"Soseaua Mihai Bravu 33"},{"id":7536,"lat":44.44857,"lng":26.125942,"name":"Bucur Obor"},{"id":7602,"lat":44.436386,"lng":26.168826,"name":"Bd Basarabia"},{"id":6538,"lat":44.413346,"lng":26.16294,"name":"Piata Titan"},{"id":6540,"lat":44.413968,"lng":26.156411,"name":"Ilioara"},{"id":7604,"lat":44.414266,"lng":26.152265,"name":"Fizicienilor"},{"id":7038,"lat":44.4107,"lng":26.148052,"name":"Tandarei"},{"id":7114,"lat":44.407132,"lng":26.144831,"name":"Energeticienilor"},{"id":7035,"lat":44.408017,"lng":26.140644,"name":"Complex Comercial Vitan"},{"id":6918,"lat":44.404604,"lng":26.142267,"name":"Pod Vitan"},{"id":7605,"lat":44.399645,"lng":26.142618,"name":"Complex Comercial Vitan Barzesti"},{"id":6481,"lat":44.391213,"lng":26.142508,"name":"Spitalul Sf Ioan"},{"id":6354,"lat":44.388451,"lng":26.141244,"name":"I N M L"},{"id":7488,"lat":44.385404,"lng":26.138932,"name":"Soseaua Oltenitei"},{"id":7489,"lat":44.37969,"lng":26.132811,"name":"Cartier Aparatorii Patriei"},{"id":7484,"lat":44.379155,"lng":26.126877,"name":"Emil Racovita"},{"id":7487,"lat":44.376365,"lng":26.118871,"name":"Bd Alexandru Obregia"},{"id":7483,"lat":44.376068,"lng":26.112516,"name":"Dorohoi"},{"id":7481,"lat":44.376999,"lng":26.105781,"name":"Izvorul Oltului"},{"id":7479,"lat":44.37759,"lng":26.101623,"name":"Ucea"},{"id":7547,"lat":44.378118,"lng":26.097915,"name":"Resita"},{"id":6683,"lat":44.37863,"lng":26.094217,"name":"Luica"},{"id":6791,"lat":44.378298,"lng":26.091488,"name":"Anghel Alexandru"},{"id":6792,"lat":44.372907,"lng":26.090065,"name":"Raducanu Cristea"},{"id":6546,"lat":44.370265,"lng":26.089357,"name":"C F R Progresul"},{"id":6150,"lat":44.366121,"lng":26.090814,"name":"Gara Progresul"},{"id":6469,"lat":44.365739,"lng":26.09113,"name":"Gara Progresul"},{"id":7635,"lat":44.369381,"lng":26.089364,"name":"C F R Progresul"},{"id":6788,"lat":44.373912,"lng":26.090559,"name":"Raducanu Cristea"},{"id":6787,"lat":44.377745,"lng":26.091583,"name":"Luica"},{"id":7472,"lat":44.377742,"lng":26.100018,"name":"Resita"},{"id":7456,"lat":44.377421,"lng":26.102266,"name":"Ucea"},{"id":7459,"lat":44.376974,"lng":26.105404,"name":"Izvorul Oltului"},{"id":7461,"lat":44.375811,"lng":26.113899,"name":"Bd Constantin Brancoveanu"},{"id":6808,"lat":44.379317,"lng":26.128159,"name":"Emil Racovita"},{"id":7450,"lat":44.380441,"lng":26.135589,"name":"Cartier Aparatorii Patriei"},{"id":7455,"lat":44.38652,"lng":26.140015,"name":"Soseaua Oltenitei"},{"id":6355,"lat":44.389375,"lng":26.142127,"name":"I N M L"},{"id":7453,"lat":44.391935,"lng":26.142719,"name":"Spitalul Sf Ioan"},{"id":6745,"lat":44.398123,"lng":26.142896,"name":"Cartier Vitan Barzesti"},{"id":7447,"lat":44.401257,"lng":26.142615,"name":"Complex Comercial Vitan Barzesti"},{"id":7445,"lat":44.404579,"lng":26.142438,"name":"Pod Vitan"},{"id":7032,"lat":44.408066,"lng":26.140794,"name":"Complex Comercial Vitan"},{"id":7108,"lat":44.406763,"lng":26.145657,"name":"Energeticienilor"},{"id":7039,"lat":44.411629,"lng":26.148488,"name":"Tandarei"},{"id":7309,"lat":44.414575,"lng":26.153729,"name":"Fizicienilor"},{"id":6542,"lat":44.413495,"lng":26.157383,"name":"Ilioara"},{"id":6545,"lat":44.414269,"lng":26.164476,"name":"Piata Titan"},{"id":6042,"lat":44.433279,"lng":26.187289,"name":"Republica"},{"id":6121,"lat":44.43219,"lng":26.191981,"name":"Grup Scolar Ind Republica"},{"id":6212,"lat":44.431441,"lng":26.195271,"name":"Meiului"},{"id":6215,"lat":44.430887,"lng":26.197718,"name":"Complex Comercial"},{"id":6208,"lat":44.429837,"lng":26.202444,"name":"Scoala Generala 55"},{"id":6210,"lat":44.428591,"lng":26.207931,"name":"S C Bucur"},{"id":6223,"lat":44.427534,"lng":26.212688,"name":"Soldat Radu Tina"},{"id":6157,"lat":44.426677,"lng":26.216497,"name":"Catanoaia"},{"id":6472,"lat":44.425273,"lng":26.220568,"name":"Soseaua Garii Catelu"},{"id":6228,"lat":44.423117,"lng":26.219638,"name":"I C M E Poarta 1"},{"id":7059,"lat":44.42075,"lng":26.218857,"name":"Fabrica De Oxigen"},{"id":7267,"lat":44.415567,"lng":26.217622,"name":"Isovolta"},{"id":6083,"lat":44.421324,"lng":26.219137,"name":"Fabrica De Oxigen"},{"id":6080,"lat":44.423539,"lng":26.219883,"name":"I C M E Poarta 1"},{"id":6533,"lat":44.425402,"lng":26.220765,"name":"Soseaua Garii Catelu"},{"id":6153,"lat":44.426867,"lng":26.216092,"name":"Catanoaia"},{"id":6244,"lat":44.427721,"lng":26.212282,"name":"Soldat Radu Tina"},{"id":6219,"lat":44.428764,"lng":26.207628,"name":"S C Bucur"},{"id":6221,"lat":44.429992,"lng":26.202137,"name":"Scoala Generala 55"},{"id":6216,"lat":44.431082,"lng":26.197343,"name":"Complex Comercial"},{"id":6123,"lat":44.432415,"lng":26.191437,"name":"Grup Scolar Ind Republica"},{"id":6014,"lat":44.433506,"lng":26.185651,"name":"Republica"},{"id":6725,"lat":44.439288,"lng":26.188838,"name":"Cora Pantelimon"},{"id":7581,"lat":44.440644,"lng":26.192024,"name":"Soseaua Dudesti Pantelimon"},{"id":6726,"lat":44.440928,"lng":26.181274,"name":"Granitul"},{"id":6723,"lat":44.441987,"lng":26.17467,"name":"Spitalul Pantelimon"},{"id":6724,"lat":44.442668,"lng":26.164776,"name":"Soseaua Fundeni"},{"id":6728,"lat":44.442568,"lng":26.149984,"name":"Soseaua Iancului"},{"id":6372,"lat":44.436876,"lng":26.136483,"name":"Vatra Luminoasa"},{"id":6429,"lat":44.431565,"lng":26.137867,"name":"Piata Hurmuzachi"},{"id":6423,"lat":44.42807,"lng":26.132035,"name":"Dristorului"},{"id":6454,"lat":44.425725,"lng":26.127311,"name":"Piata Alba Iulia"},{"id":5963,"lat":44.425999,"lng":26.122431,"name":"Lucian Blaga"},{"id":6453,"lat":44.426158,"lng":26.118295,"name":"Traian"},{"id":6456,"lat":44.426503,"lng":26.11131,"name":"Biblioteca Nationala A Romaniei"},{"id":6455,"lat":44.426792,"lng":26.104978,"name":"Bd I C Bratianu"},{"id":6554,"lat":44.429137,"lng":26.102314,"name":"Piata Unirii"},{"id":6552,"lat":44.429959,"lng":26.097009,"name":"Piata Natiunile Unite"},{"id":5968,"lat":44.433433,"lng":26.091517,"name":"Elie Radu"},{"id":7523,"lat":44.43362,"lng":26.08859,"name":"Teatrul Bulandra"},{"id":6520,"lat":44.433948,"lng":26.083513,"name":"Pod Hasdeu"},{"id":6511,"lat":44.43414,"lng":26.080713,"name":"Opera Nationala"},{"id":6649,"lat":44.434943,"lng":26.078003,"name":"Opera Nationala"},{"id":6782,"lat":44.434911,"lng":26.076531,"name":"Pod Eroilor"},{"id":7626,"lat":44.433614,"lng":26.081023,"name":"Facultatea De Medicina Veterinara"},{"id":6536,"lat":44.433364,"lng":26.084858,"name":"Pod Hasdeu"},{"id":7427,"lat":44.43299,"lng":26.090733,"name":"Pod Izvor"},{"id":7426,"lat":44.42934,"lng":26.096838,"name":"Piata Natiunile Unite"},{"id":7428,"lat":44.42739,"lng":26.100943,"name":"Piata Unirii 1"},{"id":6448,"lat":44.426578,"lng":26.104882,"name":"Bd I C Bratianu"},{"id":6436,"lat":44.426238,"lng":26.112544,"name":"Biblioteca Nationala A Romaniei"},{"id":6516,"lat":44.425898,"lng":26.119888,"name":"Traian"},{"id":6486,"lat":44.42572,"lng":26.123886,"name":"Lucian Blaga"},{"id":6518,"lat":44.426694,"lng":26.129973,"name":"Piata Alba Iulia"},{"id":6514,"lat":44.42865,"lng":26.13321,"name":"Dristorului"},{"id":6515,"lat":44.431357,"lng":26.137786,"name":"Piata Hurmuzachi"},{"id":6377,"lat":44.435803,"lng":26.137286,"name":"Maior Coravu"},{"id":6727,"lat":44.442676,"lng":26.15911,"name":"Bd Chisinau"},{"id":6735,"lat":44.442316,"lng":26.16685,"name":"Soseaua Morarilor"},{"id":6736,"lat":44.44175,"lng":26.175238,"name":"Spitalul Pantelimon"},{"id":6737,"lat":44.440509,"lng":26.182073,"name":"Granitul"},{"id":6721,"lat":44.439299,"lng":26.187427,"name":"Cora Pantelimon"},{"id":7180,"lat":44.411949,"lng":26.017128,"name":"Valea Oltului"},{"id":7295,"lat":44.41263,"lng":26.022575,"name":"Ghidigeni"},{"id":7132,"lat":44.413066,"lng":26.026446,"name":"Raul Doamnei"},{"id":7018,"lat":44.413678,"lng":26.031371,"name":"Drumul Cooperativei"},{"id":6407,"lat":44.41471,"lng":26.035158,"name":"Brasov"},{"id":7070,"lat":44.418406,"lng":26.03458,"name":"Parcul Drumul Taberei"},{"id":6857,"lat":44.422222,"lng":26.036952,"name":"Piata Drumul Taberei"},{"id":7013,"lat":44.422692,"lng":26.040243,"name":"Drumul Taberei 35"},{"id":7014,"lat":44.423933,"lng":26.046096,"name":"Favorit"},{"id":6255,"lat":44.440963,"lng":26.059547,"name":"Podul Grozavesti"},{"id":6298,"lat":44.443943,"lng":26.060924,"name":"Soseaua Orhideelor"},{"id":6254,"lat":44.448232,"lng":26.06554,"name":"Calea Plevnei"},{"id":7440,"lat":44.44921,"lng":26.068765,"name":"Gara Basarab"},{"id":7382,"lat":44.445605,"lng":26.074109,"name":"Gara De Nord"},{"id":7383,"lat":44.470641,"lng":26.051855,"name":"Clabucet"},{"id":6987,"lat":44.469176,"lng":26.059295,"name":"Aviator Popisteanu"},{"id":6988,"lat":44.472725,"lng":26.05621,"name":"Bd Expozitiei"},{"id":6989,"lat":44.473551,"lng":26.061757,"name":"Traian Vasile"},{"id":6991,"lat":44.474273,"lng":26.066356,"name":"Universitatea Romano Americana"},{"id":6607,"lat":44.474782,"lng":26.069851,"name":"Spitalul C F R 2"},{"id":7010,"lat":44.47574,"lng":26.072917,"name":"Piata Presei"},{"id":7005,"lat":44.475697,"lng":26.071719,"name":"Piata Presei"},{"id":6992,"lat":44.474292,"lng":26.066005,"name":"Universitatea Romano Americana"},{"id":6984,"lat":44.473518,"lng":26.060969,"name":"Traian Vasile"},{"id":6982,"lat":44.472204,"lng":26.055978,"name":"Bd Expozitiei"},{"id":6846,"lat":44.469291,"lng":26.057973,"name":"Aviator Popisteanu"},{"id":7457,"lat":44.449346,"lng":26.068765,"name":"Gara Basarab"},{"id":6319,"lat":44.447237,"lng":26.062019,"name":"Calea Giulesti"},{"id":6318,"lat":44.446205,"lng":26.060328,"name":"Bd Regiei"},{"id":6321,"lat":44.442132,"lng":26.060163,"name":"Podul Grozavesti"},{"id":6869,"lat":44.42422,"lng":26.04602,"name":"Favorit"},{"id":6868,"lat":44.422777,"lng":26.039151,"name":"Drumul Taberei 34"},{"id":7203,"lat":44.421608,"lng":26.03437,"name":"Piata Drumul Taberei"},{"id":6709,"lat":44.417288,"lng":26.034335,"name":"Parcul Drumul Taberei"},{"id":7354,"lat":44.414113,"lng":26.034129,"name":"Brasov"},{"id":7017,"lat":44.41363,"lng":26.030271,"name":"Drumul Cooperativei"},{"id":6008,"lat":44.412921,"lng":26.024469,"name":"Prelungirea Ghencea"},{"id":7208,"lat":44.412628,"lng":26.022154,"name":"Ghidigeni"},{"id":7211,"lat":44.412177,"lng":26.018447,"name":"Valea Oltului"},{"id":6867,"lat":44.434383,"lng":26.033671,"name":"Lujerului"},{"id":6547,"lat":44.437913,"lng":26.023355,"name":"Rosia Montana"},{"id":7609,"lat":44.440894,"lng":26.024849,"name":"Dezrobirii"},{"id":7607,"lat":44.44215,"lng":26.022049,"name":"Cimitirul Militari"},{"id":7138,"lat":44.443155,"lng":26.019226,"name":"Apusului"},{"id":7293,"lat":44.440999,"lng":26.017205,"name":"Aragonitului"},{"id":6577,"lat":44.43955,"lng":26.015383,"name":"Ghirlandei"},{"id":6568,"lat":44.440141,"lng":26.011891,"name":"Margelelor"},{"id":6582,"lat":44.438068,"lng":26.009238,"name":"Bd Anul 1864"},{"id":7713,"lat":44.439437,"lng":26.005796,"name":"Tufanelelor"},{"id":6581,"lat":44.44063,"lng":26.005599,"name":"Catinei"},{"id":6575,"lat":44.441687,"lng":26.00388,"name":"Cartier Rosu"},{"id":6963,"lat":44.439668,"lng":26.005114,"name":"Tufanelelor"},{"id":6585,"lat":44.438851,"lng":26.00717,"name":"Stramosilor"},{"id":6586,"lat":44.438345,"lng":26.01032,"name":"Margelelor"},{"id":6587,"lat":44.440512,"lng":26.013268,"name":"Ghirlandei"},{"id":7610,"lat":44.441433,"lng":26.017836,"name":"Aragonitului"},{"id":7141,"lat":44.443267,"lng":26.020086,"name":"Bd Uverturii"},{"id":6769,"lat":44.441762,"lng":26.022724,"name":"Cimitirul Militari"},{"id":7630,"lat":44.440236,"lng":26.02604,"name":"Dezrobirii"},{"id":7632,"lat":44.438554,"lng":26.029774,"name":"Teatrul Masca"},{"id":7631,"lat":44.436442,"lng":26.034311,"name":"Pasaj Lujerului"},{"id":7036,"lat":44.486956,"lng":26.115297,"name":"C F R Constanta"},{"id":7033,"lat":44.484342,"lng":26.110104,"name":"Pipera"},{"id":7040,"lat":44.483173,"lng":26.108093,"name":"Marin Dracea"},{"id":6243,"lat":44.480968,"lng":26.104187,"name":"Barbu Vacarescu"},{"id":7421,"lat":44.479562,"lng":26.099513,"name":"Aurel Vlaicu"},{"id":7363,"lat":44.479583,"lng":26.092604,"name":"Nicolae Caramfil"},{"id":7365,"lat":44.484572,"lng":26.092222,"name":"Pasajul Aviatiei"},{"id":7355,"lat":44.492695,"lng":26.08773,"name":"Apicola"},{"id":5958,"lat":44.494059,"lng":26.083409,"name":"Piata Baneasa"},{"id":6845,"lat":44.495509,"lng":26.077524,"name":"Aeroportul Baneasa"},{"id":7304,"lat":44.498155,"lng":26.07287,"name":"Brodina"},{"id":6391,"lat":44.499848,"lng":26.067351,"name":"Universitatea Bioterra"},{"id":6562,"lat":44.493325,"lng":26.063699,"name":"Coralilor"},{"id":7102,"lat":44.490477,"lng":26.06456,"name":"Nuferilor"},{"id":6571,"lat":44.488156,"lng":26.065645,"name":"Foradex"},{"id":6957,"lat":44.483284,"lng":26.063323,"name":"Combinatul Fondului Plastic"},{"id":7156,"lat":44.484898,"lng":26.058163,"name":"Jiului"},{"id":7270,"lat":44.485017,"lng":26.054796,"name":"Dridu"},{"id":6871,"lat":44.484246,"lng":26.047631,"name":"Depozit Pajura"},{"id":6388,"lat":44.495027,"lng":26.030455,"name":"Laromet"},{"id":7469,"lat":44.491588,"lng":26.027813,"name":"Oasului"},{"id":7508,"lat":44.489242,"lng":26.026013,"name":"Mihai Viteazul"},{"id":7312,"lat":44.485596,"lng":26.02197,"name":"Mezes"},{"id":6196,"lat":44.487652,"lng":26.01684,"name":"Maica Teofana"},{"id":7501,"lat":44.490888,"lng":26.010596,"name":"Sold Adrian Patru"},{"id":7591,"lat":44.491434,"lng":26.014436,"name":"Complex Comercial Colosseum"},{"id":6114,"lat":44.489747,"lng":26.011302,"name":"Sold Adrian Patru"},{"id":6113,"lat":44.48733,"lng":26.017363,"name":"Maica Teofana"},{"id":5946,"lat":44.485593,"lng":26.022769,"name":"Mezes"},{"id":7532,"lat":44.490155,"lng":26.026787,"name":"Mihai Viteazul"},{"id":7564,"lat":44.492008,"lng":26.028201,"name":"Oasului"},{"id":6605,"lat":44.483542,"lng":26.04157,"name":"Bd Gloriei"},{"id":6606,"lat":44.484257,"lng":26.048572,"name":"Depozit Pajura"},{"id":7327,"lat":44.485119,"lng":26.056728,"name":"Dridu"},{"id":6994,"lat":44.483433,"lng":26.064082,"name":"Combinatul Fondului Plastic"},{"id":6572,"lat":44.488896,"lng":26.065316,"name":"Foradex"},{"id":7118,"lat":44.491696,"lng":26.064332,"name":"Nuferilor"},{"id":6559,"lat":44.494834,"lng":26.06334,"name":"Coralilor"},{"id":6404,"lat":44.499769,"lng":26.067435,"name":"Universitatea Bioterra"},{"id":6835,"lat":44.497542,"lng":26.073689,"name":"Brodina"},{"id":7561,"lat":44.494305,"lng":26.080139,"name":"Soseaua Bucuresti Ploiesti"},{"id":6624,"lat":44.493863,"lng":26.083724,"name":"Piata Baneasa"},{"id":7544,"lat":44.4918,"lng":26.088607,"name":"Hotel Phoenicia"},{"id":7337,"lat":44.483408,"lng":26.092115,"name":"Carutasilor"},{"id":7339,"lat":44.479063,"lng":26.093401,"name":"Soseaua Pipera"},{"id":7367,"lat":44.479591,"lng":26.100628,"name":"Aurel Vlaicu"},{"id":6235,"lat":44.480723,"lng":26.104232,"name":"Barbu Vacarescu"},{"id":7052,"lat":44.482868,"lng":26.108055,"name":"Marin Dracea"},{"id":6299,"lat":44.484277,"lng":26.110402,"name":"Pipera"},{"id":7045,"lat":44.48601,"lng":26.113442,"name":"C F R Constanta"},{"id":6131,"lat":44.429946,"lng":26.106365,"name":"Piata Sfanta Vineri"},{"id":7163,"lat":44.414868,"lng":26.104338,"name":"Colegiul National Gheorghe Sincai"},{"id":7277,"lat":44.411139,"lng":26.099871,"name":"Adesgo"},{"id":7274,"lat":44.408274,"lng":26.096349,"name":"Cutitul De Argint"},{"id":7416,"lat":44.406788,"lng":26.095419,"name":"Cimitirul Eroilor Revolutiei"},{"id":5924,"lat":44.401021,"lng":26.100626,"name":"Cimitirul Serban Voda"},{"id":6746,"lat":44.399631,"lng":26.10576,"name":"Opris Ilie"},{"id":6509,"lat":44.396885,"lng":26.109752,"name":"Bd Constantin Brancoveanu"},{"id":6390,"lat":44.391667,"lng":26.109779,"name":"Secuilor"},{"id":6105,"lat":44.389038,"lng":26.109828,"name":"Spitalul De Copii"},{"id":6804,"lat":44.386871,"lng":26.1098,"name":"Izvorul Rece"},{"id":6803,"lat":44.384223,"lng":26.109807,"name":"Izvorul Crisului"},{"id":6802,"lat":44.380703,"lng":26.109878,"name":"Lamotesti"},{"id":6297,"lat":44.377215,"lng":26.110034,"name":"Turnu Magurele"},{"id":6790,"lat":44.377826,"lng":26.11026,"name":"Covasna"},{"id":6789,"lat":44.381434,"lng":26.110165,"name":"Lamotesti"},{"id":6775,"lat":44.385098,"lng":26.110066,"name":"Izvorul Crisului"},{"id":6776,"lat":44.386903,"lng":26.110023,"name":"Nitu Vasile"},{"id":6104,"lat":44.389485,"lng":26.109948,"name":"Spitalul De Copii"},{"id":6389,"lat":44.392368,"lng":26.109925,"name":"Secuilor"},{"id":5960,"lat":44.398952,"lng":26.108102,"name":"Bd Constantin Brancoveanu"},{"id":5961,"lat":44.400433,"lng":26.103551,"name":"Opris Ilie"},{"id":5962,"lat":44.402412,"lng":26.098495,"name":"Cimitirul Serban Voda"},{"id":7387,"lat":44.406091,"lng":26.096048,"name":"Cimitirul Eroilor Revolutiei"},{"id":7388,"lat":44.409226,"lng":26.097652,"name":"Cutitul De Argint"},{"id":7385,"lat":44.411494,"lng":26.100741,"name":"Adesgo"},{"id":6302,"lat":44.426991,"lng":26.11208,"name":"Mircea Voda"},{"id":6126,"lat":44.43107,"lng":26.111552,"name":"Matei Basarab"},{"id":6239,"lat":44.387468,"lng":26.060889,"name":"Cartier Confort Urban"},{"id":6785,"lat":44.390442,"lng":26.063551,"name":"Piata Pucheni"},{"id":6487,"lat":44.393405,"lng":26.066754,"name":"Soseaua Salaj"},{"id":6767,"lat":44.392711,"lng":26.069906,"name":"Bacau"},{"id":6772,"lat":44.397087,"lng":26.069988,"name":"Complex Comercial"},{"id":6765,"lat":44.401005,"lng":26.071506,"name":"Amurgului"},{"id":6766,"lat":44.403673,"lng":26.073206,"name":"Pecineaga"},{"id":5934,"lat":44.405421,"lng":26.074271,"name":"Fabrica De Paine"},{"id":7412,"lat":44.408581,"lng":26.077931,"name":"Calea Ferentari"},{"id":5936,"lat":44.411365,"lng":26.07858,"name":"Doina"},{"id":5935,"lat":44.414424,"lng":26.080955,"name":"Soseaua Progresului"},{"id":7136,"lat":44.416982,"lng":26.083418,"name":"Soseaua Viilor"},{"id":7342,"lat":44.417989,"lng":26.082926,"name":"Piata Chirigiu"},{"id":7341,"lat":44.421119,"lng":26.090223,"name":"Piata Regina Maria"},{"id":7393,"lat":44.423503,"lng":26.094433,"name":"11 Iunie"},{"id":7260,"lat":44.42661,"lng":26.100434,"name":"Piata Unirii"},{"id":7261,"lat":44.424507,"lng":26.09613,"name":"11 Iunie"},{"id":7364,"lat":44.421945,"lng":26.091193,"name":"Piata Regina Maria"},{"id":7403,"lat":44.417441,"lng":26.082473,"name":"Piata Chirigiu"},{"id":5957,"lat":44.416272,"lng":26.083133,"name":"Soseaua Viilor"},{"id":5950,"lat":44.413658,"lng":26.080249,"name":"Soseaua Progresului"},{"id":5952,"lat":44.41072,"lng":26.077945,"name":"Doina"},{"id":6976,"lat":44.409138,"lng":26.077085,"name":"Nasaud"},{"id":6870,"lat":44.407745,"lng":26.076185,"name":"Calea Ferentari"},{"id":6488,"lat":44.40508,"lng":26.074016,"name":"Fabrica De Paine"},{"id":6774,"lat":44.4032,"lng":26.07281,"name":"Pecineaga"},{"id":6773,"lat":44.400383,"lng":26.070943,"name":"Amurgului"},{"id":6768,"lat":44.397179,"lng":26.069094,"name":"Complex Comercial"},{"id":6786,"lat":44.393086,"lng":26.065913,"name":"Bacau"},{"id":6784,"lat":44.391037,"lng":26.064069,"name":"Piata Pucheni"},{"id":6238,"lat":44.387325,"lng":26.060637,"name":"Cartier Confort Urban"},{"id":7462,"lat":44.43646,"lng":26.101799,"name":"Piata 21 Decembrie 1989"},{"id":6397,"lat":44.434847,"lng":26.073292,"name":"Spitalul Universitar"},{"id":6826,"lat":44.433018,"lng":26.070646,"name":"Carol Davila"},{"id":6939,"lat":44.428506,"lng":26.064632,"name":"Universitatea Nationala De Aparare"},{"id":6468,"lat":44.426024,"lng":26.068742,"name":"Dr Mihai Ciuca"},{"id":6941,"lat":44.424287,"lng":26.071758,"name":"Spitalul Dr Th Burghele"},{"id":6838,"lat":44.423052,"lng":26.071924,"name":"Soseaua Panduri"},{"id":6825,"lat":44.421851,"lng":26.068794,"name":"Soseaua Progresului"},{"id":6841,"lat":44.420451,"lng":26.064925,"name":"Sebastian"},{"id":7646,"lat":44.418016,"lng":26.057498,"name":"Petre Ispirescu"},{"id":7645,"lat":44.416287,"lng":26.051921,"name":"Cimitirul Ghencea"},{"id":7513,"lat":44.415561,"lng":26.048288,"name":"Garleni"},{"id":7254,"lat":44.41515,"lng":26.042527,"name":"Cartier Tudor Vladimirescu"},{"id":6072,"lat":44.411314,"lng":26.011737,"name":"Costisa"},{"id":7123,"lat":44.410692,"lng":26.00667,"name":"Ansamblul Primavara"},{"id":5997,"lat":44.41014,"lng":26.002042,"name":"Sere Militari"},{"id":6589,"lat":44.40965,"lng":25.998085,"name":"Drumul Funigeilor"},{"id":7112,"lat":44.408806,"lng":25.993616,"name":"Magnoliei"},{"id":7089,"lat":44.407782,"lng":25.990275,"name":"Cartierul Latin"},{"id":6214,"lat":44.404987,"lng":25.990257,"name":"Complex Cartier Latin"},{"id":7073,"lat":44.405747,"lng":25.990634,"name":"Complex Cartier Latin"},{"id":7134,"lat":44.40848,"lng":25.992784,"name":"Cartierul Latin"},{"id":7150,"lat":44.40942,"lng":25.996502,"name":"Magnoliei"},{"id":6583,"lat":44.4097,"lng":25.998914,"name":"Drumul Funigeilor"},{"id":6827,"lat":44.410138,"lng":26.002516,"name":"Sere Militari"},{"id":7133,"lat":44.410756,"lng":26.00763,"name":"Ansamblul Primavara"},{"id":6071,"lat":44.411372,"lng":26.012479,"name":"Costisa"},{"id":7546,"lat":44.414035,"lng":26.034098,"name":"Brasov"},{"id":6863,"lat":44.415226,"lng":26.046169,"name":"Ghencea"},{"id":7515,"lat":44.415504,"lng":26.049213,"name":"Garleni"},{"id":7415,"lat":44.41663,"lng":26.05359,"name":"Cimitirul Ghencea"},{"id":6023,"lat":44.418588,"lng":26.059938,"name":"Petre Ispirescu"},{"id":7184,"lat":44.420849,"lng":26.066535,"name":"Sebastian"},{"id":7185,"lat":44.422332,"lng":26.070597,"name":"Soseaua Progresului"},{"id":6940,"lat":44.424762,"lng":26.071679,"name":"Spitalul Dr Th Burghele"},{"id":6942,"lat":44.426536,"lng":26.068358,"name":"Dr Mihai Ciuca"},{"id":7011,"lat":44.42885,"lng":26.066608,"name":"Profesor Dr Rainer"},{"id":7012,"lat":44.432244,"lng":26.070034,"name":"Carol Davila"},{"id":6061,"lat":44.43507,"lng":26.073868,"name":"Pod Eroilor"},{"id":6058,"lat":44.439616,"lng":26.080488,"name":"Berzei"},{"id":6705,"lat":44.440079,"lng":26.085289,"name":"Constantin Cristescu"},{"id":6059,"lat":44.439817,"lng":26.089976,"name":"Cismigiu"},{"id":6151,"lat":44.440534,"lng":26.099014,"name":"Bd Nicolae Balcescu"},{"id":6163,"lat":44.43783,"lng":26.070508,"name":"Pod Cotroceni"},{"id":6639,"lat":44.436842,"lng":26.072511,"name":"Spitalul Universitar"},{"id":7594,"lat":44.425095,"lng":26.122973,"name":"Lucian Blaga"},{"id":7439,"lat":44.423421,"lng":26.12295,"name":"Piata Vitan"},{"id":5966,"lat":44.420455,"lng":26.125301,"name":"Bucuresti Mall"},{"id":7458,"lat":44.417383,"lng":26.128954,"name":"Zizin"},{"id":6862,"lat":44.41432,"lng":26.133003,"name":"Calea Vitan"},{"id":7307,"lat":44.411241,"lng":26.13589,"name":"Stadion Olimpia"},{"id":7029,"lat":44.408916,"lng":26.139059,"name":"Complex Comercial Vitan"},{"id":6227,"lat":44.405083,"lng":26.149528,"name":"C E T Sud Vitan"},{"id":7306,"lat":44.405992,"lng":26.148287,"name":"C E T Sud Vitan"},{"id":7031,"lat":44.409023,"lng":26.138955,"name":"Complex Comercial Vitan"},{"id":7285,"lat":44.411305,"lng":26.135963,"name":"Stadion Olimpia"},{"id":6159,"lat":44.415932,"lng":26.131314,"name":"Soseaua Mihai Bravu"},{"id":6082,"lat":44.418095,"lng":26.128351,"name":"Zizin"},{"id":5967,"lat":44.420105,"lng":26.125811,"name":"Bucuresti Mall"},{"id":7584,"lat":44.423085,"lng":26.1237,"name":"Piata Vitan"},{"id":6178,"lat":44.441421,"lng":26.072177,"name":"Mircea Vulcanescu"},{"id":6180,"lat":44.445926,"lng":26.067064,"name":"Primaria Sector 6"},{"id":6911,"lat":44.385456,"lng":26.140608,"name":"Soseaua Vitan Barzesti"},{"id":6687,"lat":44.383531,"lng":26.146789,"name":"Romprim"},{"id":6682,"lat":44.38404,"lng":26.145692,"name":"Romprim"},{"id":6567,"lat":44.404001,"lng":26.141955,"name":"Pod Vitan Barzesti"},{"id":7322,"lat":44.405619,"lng":26.136025,"name":"Fundatia Aisteda"},{"id":7276,"lat":44.406299,"lng":26.133191,"name":"Uzitex"},{"id":7325,"lat":44.406848,"lng":26.130841,"name":"Piscul Rachitei"},{"id":6517,"lat":44.408758,"lng":26.124187,"name":"Pod Mihai Bravu"},{"id":6054,"lat":44.412214,"lng":26.12837,"name":"Penes Curcanul"},{"id":7062,"lat":44.359548,"lng":26.13903,"name":"Vulcan Berceni"},{"id":7064,"lat":44.363839,"lng":26.135361,"name":"I M G B Poarta 3"},{"id":6480,"lat":44.366768,"lng":26.133221,"name":"Dumitru Brumarescu"},{"id":7529,"lat":44.365795,"lng":26.12923,"name":"Bd Metalurgiei 136"},{"id":7335,"lat":44.365804,"lng":26.125712,"name":"Metro Berceni"},{"id":6411,"lat":44.371415,"lng":26.122985,"name":"Sere"},{"id":7142,"lat":44.372951,"lng":26.122255,"name":"Editura Aramis"},{"id":6119,"lat":44.379363,"lng":26.135005,"name":"Cartier Aparatorii Patriei"},{"id":6873,"lat":44.37562,"lng":26.137898,"name":"Comisani"},{"id":6117,"lat":44.37029,"lng":26.141986,"name":"Bd Metalurgiei"},{"id":6442,"lat":44.367103,"lng":26.14442,"name":"I M G B Poarta 1"},{"id":6412,"lat":44.361885,"lng":26.148418,"name":"I M G B Poarta 2"},{"id":6493,"lat":44.358393,"lng":26.151086,"name":"Upetrolam"},{"id":7505,"lat":44.351552,"lng":26.156356,"name":"Soseaua Berceni 104S"},{"id":7155,"lat":44.349475,"lng":26.157905,"name":"Soseaua Berceni 104"},{"id":7521,"lat":44.343333,"lng":26.162567,"name":"Soseaua De Centura"},{"id":6887,"lat":44.339296,"lng":26.155811,"name":"Facultativa"},{"id":6122,"lat":44.33828,"lng":26.152355,"name":"Facultativa"},{"id":6296,"lat":44.337795,"lng":26.149192,"name":"Remat"},{"id":6038,"lat":44.337064,"lng":26.146661,"name":"Peco Silflor Move"},{"id":6101,"lat":44.337744,"lng":26.149184,"name":"Remat"},{"id":6120,"lat":44.338159,"lng":26.152029,"name":"Facultativa"},{"id":6916,"lat":44.339276,"lng":26.155918,"name":"Facultativa"},{"id":7520,"lat":44.343776,"lng":26.162454,"name":"Soseaua De Centura"},{"id":7154,"lat":44.34968,"lng":26.15788,"name":"Soseaua Berceni 104"},{"id":7503,"lat":44.351741,"lng":26.156291,"name":"Soseaua Berceni 104S"},{"id":6491,"lat":44.358478,"lng":26.15117,"name":"Upetrolam"},{"id":6413,"lat":44.361325,"lng":26.148913,"name":"I M G B Poarta 2"},{"id":6414,"lat":44.36737,"lng":26.144292,"name":"I M G B Poarta 1"},{"id":6125,"lat":44.371478,"lng":26.141179,"name":"Bd Metalurgiei"},{"id":7240,"lat":44.375558,"lng":26.13803,"name":"Comisani"},{"id":6006,"lat":44.37871,"lng":26.135643,"name":"Piata Aparatorii Patriei"},{"id":6438,"lat":44.376228,"lng":26.120524,"name":"Platforma Metalurgiei"},{"id":7145,"lat":44.373011,"lng":26.122073,"name":"Editura Aramis"},{"id":6437,"lat":44.370293,"lng":26.12339,"name":"Sere"},{"id":7333,"lat":44.36559,"lng":26.125633,"name":"Metro Berceni"},{"id":7522,"lat":44.366001,"lng":26.129896,"name":"Bd Metalurgiei 136"},{"id":6479,"lat":44.366806,"lng":26.133165,"name":"Dumitru Brumarescu"},{"id":7067,"lat":44.364045,"lng":26.135151,"name":"I M G B Poarta 3"},{"id":7024,"lat":44.414804,"lng":26.045992,"name":"Ghencea"},{"id":7111,"lat":44.428261,"lng":26.060748,"name":"Piata Danny Huwe"},{"id":6060,"lat":44.439081,"lng":26.099924,"name":"Bd Nicolae Balcescu"},{"id":7317,"lat":44.445367,"lng":26.097641,"name":"Piata Romana"},{"id":7398,"lat":44.44327,"lng":26.097305,"name":"Bd Nicolae Golescu"},{"id":6415,"lat":44.440249,"lng":26.093566,"name":"Luterana"},{"id":7592,"lat":44.443915,"lng":26.089278,"name":"Calea Grivitei"},{"id":6532,"lat":44.443276,"lng":26.083311,"name":"Popa Tatu"},{"id":7452,"lat":44.442606,"lng":26.08089,"name":"Mircea Vulcanescu"},{"id":6396,"lat":44.43992,"lng":26.08061,"name":"Berzei"},{"id":6865,"lat":44.429606,"lng":26.064103,"name":"Soseaua Panduri"},{"id":7113,"lat":44.42803,"lng":26.060257,"name":"Drumul Sarii"},{"id":6938,"lat":44.415018,"lng":26.034775,"name":"Bd Ghencea"},{"id":7023,"lat":44.414915,"lng":26.04581,"name":"Ghencea"},{"id":7101,"lat":44.44619,"lng":26.097232,"name":"Piata Romana"},{"id":7183,"lat":44.447441,"lng":26.09946,"name":"A S E"},{"id":5931,"lat":44.453851,"lng":26.098363,"name":"Perla"},{"id":6345,"lat":44.458256,"lng":26.095691,"name":"Colegiul National I L Caragiale"},{"id":7027,"lat":44.461073,"lng":26.093805,"name":"Piata Dorobantilor"},{"id":7030,"lat":44.465392,"lng":26.087846,"name":"Piata Charles De Gaulle"},{"id":7028,"lat":44.467647,"lng":26.078346,"name":"Arcul De Triumf"},{"id":6628,"lat":44.47275,"lng":26.07557,"name":"Muzeul Satului"},{"id":5994,"lat":44.478083,"lng":26.073283,"name":"Piata Presei"},{"id":6609,"lat":44.484066,"lng":26.076508,"name":"Gara Baneasa"},{"id":7233,"lat":44.491281,"lng":26.07921,"name":"Pod Baneasa"},{"id":6993,"lat":44.496371,"lng":26.079808,"name":"Aeroport Baneasa"},{"id":6983,"lat":44.506932,"lng":26.082231,"name":"Drumul Matasii"},{"id":6967,"lat":44.512786,"lng":26.080994,"name":"Institutul Meteorologic"},{"id":7597,"lat":44.514477,"lng":26.082676,"name":"Ambasada S U A"},{"id":6952,"lat":44.507842,"lng":26.08634,"name":"Complex Baneasa"},{"id":6961,"lat":44.508136,"lng":26.086019,"name":"Complex Baneasa"},{"id":7596,"lat":44.514593,"lng":26.082704,"name":"Ambasada S U A"},{"id":7025,"lat":44.513198,"lng":26.080395,"name":"Institutul Meteorologic"},{"id":7026,"lat":44.50682,"lng":26.081674,"name":"Drumul Matasii"},{"id":7022,"lat":44.496031,"lng":26.078843,"name":"Aeroport Baneasa"},{"id":7343,"lat":44.490663,"lng":26.078947,"name":"Pod Baneasa"},{"id":7345,"lat":44.484006,"lng":26.075753,"name":"Gara Baneasa"},{"id":6695,"lat":44.476977,"lng":26.073024,"name":"Piata Presei"},{"id":6623,"lat":44.471799,"lng":26.075625,"name":"Muzeul Satului"},{"id":7340,"lat":44.46695,"lng":26.07948,"name":"Arcul De Triumf"},{"id":5925,"lat":44.465314,"lng":26.087532,"name":"Piata Charles De Gaulle"},{"id":5947,"lat":44.459891,"lng":26.094379,"name":"Piata Dorobantilor"},{"id":6344,"lat":44.457182,"lng":26.096207,"name":"Colegiul National I L Caragiale"},{"id":5949,"lat":44.453835,"lng":26.098175,"name":"Soseaua Stefan Cel Mare"},{"id":6304,"lat":44.447601,"lng":26.099356,"name":"A S E"},{"id":6249,"lat":44.449723,"lng":26.067493,"name":"Gara Basarab"},{"id":7264,"lat":44.448149,"lng":26.064321,"name":"Calea Giulesti"},{"id":6179,"lat":44.44526,"lng":26.067672,"name":"Primaria Sector 6"},{"id":7253,"lat":44.447157,"lng":26.075898,"name":"Gara De Nord"},{"id":6458,"lat":44.445626,"lng":26.082058,"name":"Buzesti"},{"id":6452,"lat":44.444697,"lng":26.088815,"name":"Bd Dacia"},{"id":5956,"lat":44.445696,"lng":26.091649,"name":"Calea Victoriei"},{"id":6064,"lat":44.44669,"lng":26.095264,"name":"Piata Romana"},{"id":6464,"lat":44.440175,"lng":26.120533,"name":"Foisorul De Foc"},{"id":6519,"lat":44.433408,"lng":26.120839,"name":"Hala Traian"},{"id":6506,"lat":44.429787,"lng":26.120185,"name":"Matei Basarab"},{"id":6507,"lat":44.42565,"lng":26.118969,"name":"Bd Unirii"},{"id":6508,"lat":44.423387,"lng":26.11827,"name":"Bd Octavian Goga"},{"id":6510,"lat":44.420767,"lng":26.11619,"name":"Papazoglu"},{"id":6512,"lat":44.419796,"lng":26.115391,"name":"Scoala Generala 81"},{"id":6544,"lat":44.416032,"lng":26.113297,"name":"Universitatea Crestina Dimitrie Cantemir"},{"id":7090,"lat":44.412034,"lng":26.114573,"name":"Piata Timpuri Noi"},{"id":5955,"lat":44.409754,"lng":26.116695,"name":"Bd Abatorului"},{"id":7338,"lat":44.410213,"lng":26.116111,"name":"Bd Abatorului"},{"id":7097,"lat":44.413039,"lng":26.114323,"name":"Piata Timpuri Noi"},{"id":6539,"lat":44.416155,"lng":26.11348,"name":"Universitatea Crestina Dimitrie Cantemir"},{"id":6537,"lat":44.419455,"lng":26.115344,"name":"Scoala Generala 81"},{"id":6530,"lat":44.421402,"lng":26.116954,"name":"Papazoglu"},{"id":6526,"lat":44.423105,"lng":26.118275,"name":"Bd Octavian Goga"},{"id":6528,"lat":44.4265,"lng":26.11926,"name":"Bd Unirii"},{"id":6534,"lat":44.431278,"lng":26.120741,"name":"Matei Basarab"},{"id":6535,"lat":44.433315,"lng":26.12106,"name":"Hala Traian"},{"id":6424,"lat":44.447151,"lng":26.09712,"name":"Piata Romana"},{"id":5954,"lat":44.445777,"lng":26.091586,"name":"Calea Victoriei"},{"id":6332,"lat":44.444717,"lng":26.088579,"name":"Biblioteca Academiei Romane"},{"id":7248,"lat":44.442691,"lng":26.079551,"name":"Bd Dinicu Golescu"},{"id":7375,"lat":44.44652,"lng":26.072955,"name":"Gara De Nord"},{"id":7258,"lat":44.478932,"lng":26.101757,"name":"Aurel Vlaicu"},{"id":6406,"lat":44.474961,"lng":26.104077,"name":"Soseaua Fabrica De Glucoza"},{"id":7037,"lat":44.469781,"lng":26.103976,"name":"Ancuta Baneasa"},{"id":6419,"lat":44.465526,"lng":26.101916,"name":"Mircea Eliade"},{"id":7229,"lat":44.462291,"lng":26.10128,"name":"George Calinescu"},{"id":7562,"lat":44.460083,"lng":26.100882,"name":"Piata Floreasca"},{"id":7245,"lat":44.45456,"lng":26.100685,"name":"Soseaua Stefan Cel Mare"},{"id":7086,"lat":44.45285,"lng":26.104129,"name":"Stadionul Dinamo"},{"id":6693,"lat":44.448343,"lng":26.107419,"name":"Teatrul Metropolis"},{"id":6370,"lat":44.439451,"lng":26.123714,"name":"Scoala Iancului"},{"id":6369,"lat":44.440129,"lng":26.134401,"name":"Piata Iancului"},{"id":6371,"lat":44.428338,"lng":26.1385,"name":"Gheorghe Petrascu"},{"id":6373,"lat":44.425529,"lng":26.137351,"name":"Baba Novac"},{"id":5922,"lat":44.419805,"lng":26.136383,"name":"Calea Dudesti"},{"id":6251,"lat":44.415195,"lng":26.13326,"name":"Calea Vitan"},{"id":6056,"lat":44.419128,"lng":26.136225,"name":"Calea Dudesti"},{"id":7606,"lat":44.425326,"lng":26.137731,"name":"Baba Novac"},{"id":6375,"lat":44.427984,"lng":26.138679,"name":"Gheorghe Petrascu"},{"id":6470,"lat":44.441074,"lng":26.132251,"name":"Piata Iancului"},{"id":6426,"lat":44.439504,"lng":26.123761,"name":"Scoala Iancului"},{"id":7644,"lat":44.439774,"lng":26.12079,"name":"Foisorul De Foc"},{"id":7079,"lat":44.448252,"lng":26.103057,"name":"Mihai Eminescu"},{"id":6681,"lat":44.452585,"lng":26.101006,"name":"Soseaua Stefan Cel Mare"},{"id":6877,"lat":44.46057,"lng":26.101118,"name":"Piata Floreasca"},{"id":7232,"lat":44.462972,"lng":26.101568,"name":"Glinka"},{"id":7231,"lat":44.466271,"lng":26.102186,"name":"Ceaikovski"},{"id":7034,"lat":44.470312,"lng":26.104439,"name":"Ancuta Baneasa"},{"id":7047,"lat":44.475421,"lng":26.103893,"name":"Soseaua Fabrica De Glucoza"},{"id":6408,"lat":44.479223,"lng":26.101733,"name":"Aurel Vlaicu"},{"id":6250,"lat":44.422253,"lng":25.983133,"name":"C E T Vest Militari"},{"id":6748,"lat":44.422247,"lng":25.984437,"name":"Firos"},{"id":6747,"lat":44.422891,"lng":25.99207,"name":"Itia"},{"id":6730,"lat":44.423196,"lng":25.99571,"name":"Comat Auto"},{"id":7550,"lat":44.424985,"lng":25.999271,"name":"Valea Cascadelor"},{"id":7502,"lat":44.427592,"lng":26.001158,"name":"C F R Cotroceni"},{"id":6381,"lat":44.43232,"lng":26.005255,"name":"Bd Preciziei"},{"id":6882,"lat":44.423709,"lng":26.074309,"name":"Soseaua Panduri"},{"id":6864,"lat":44.425055,"lng":26.078561,"name":"Piata Arsenalului"},{"id":6924,"lat":44.424659,"lng":26.085805,"name":"Casa Academiei"},{"id":6037,"lat":44.430589,"lng":26.086128,"name":"Palatul Parlamentului"},{"id":5928,"lat":44.430906,"lng":26.083971,"name":"Bd B P Hasdeu"},{"id":6550,"lat":44.424645,"lng":26.08991,"name":"Calea 13 Septembrie"},{"id":6866,"lat":44.424876,"lng":26.0859,"name":"Casa Academiei"},{"id":6876,"lat":44.424975,"lng":26.084155,"name":"Palatul Parlamentului"},{"id":5939,"lat":44.42482,"lng":26.076523,"name":"Piata Arsenalului"},{"id":6943,"lat":44.430949,"lng":26.061156,"name":"Universitatea Nationala De Aparare"},{"id":6410,"lat":44.432285,"lng":26.005001,"name":"Bd Preciziei"},{"id":6409,"lat":44.4293,"lng":26.002374,"name":"C F R Cotroceni"},{"id":7531,"lat":44.42352,"lng":25.99839,"name":"Valea Cascadelor"},{"id":6731,"lat":44.423198,"lng":25.994625,"name":"Comat Auto"},{"id":6749,"lat":44.42293,"lng":25.991467,"name":"Itia"},{"id":6751,"lat":44.422357,"lng":25.984728,"name":"Firos"},{"id":6247,"lat":44.42226,"lng":25.983878,"name":"C E T Vest Militari"},{"id":6619,"lat":44.437801,"lng":25.958572,"name":"Carrefour Militari"},{"id":6395,"lat":44.438379,"lng":25.966161,"name":"Soseaua De Centura"},{"id":6914,"lat":44.43564,"lng":25.958318,"name":"Complex Comercial West Park"},{"id":6155,"lat":44.433963,"lng":26.019927,"name":"Piata Gorjului"},{"id":6116,"lat":44.431093,"lng":26.018306,"name":"Scoala Generala 309"},{"id":6891,"lat":44.427505,"lng":26.015155,"name":"Petuniei"},{"id":6461,"lat":44.426018,"lng":26.01782,"name":"Frigocom"},{"id":6541,"lat":44.426601,"lng":26.024988,"name":"Romancierilor"},{"id":6135,"lat":44.42695,"lng":26.029376,"name":"Complex Comercial"},{"id":6463,"lat":44.427375,"lng":26.034425,"name":"Brasov"},{"id":6462,"lat":44.427918,"lng":26.041936,"name":"Sergent Moise"},{"id":6459,"lat":44.428249,"lng":26.049341,"name":"Sibiu"},{"id":6450,"lat":44.428636,"lng":26.055557,"name":"Bd G Ral Vasile Milea"},{"id":6449,"lat":44.428882,"lng":26.059492,"name":"Piata Danny Huwe"},{"id":6447,"lat":44.429072,"lng":26.059735,"name":"Piata Danny Huwe"},{"id":6446,"lat":44.428746,"lng":26.053793,"name":"Bd G Ral Vasile Milea"},{"id":6445,"lat":44.428398,"lng":26.048098,"name":"Sibiu"},{"id":6444,"lat":44.428076,"lng":26.040073,"name":"Sergent Moise"},{"id":6443,"lat":44.427316,"lng":26.03166,"name":"Brasov"},{"id":6136,"lat":44.427062,"lng":26.028425,"name":"Complex Comercial"},{"id":6543,"lat":44.426708,"lng":26.023784,"name":"Romancierilor"},{"id":6435,"lat":44.426148,"lng":26.016973,"name":"Frigocom"},{"id":7137,"lat":44.428142,"lng":26.015841,"name":"Petuniei"},{"id":6115,"lat":44.431587,"lng":26.01886,"name":"Scoala Generala 309"},{"id":6974,"lat":44.434138,"lng":26.019337,"name":"Piata Gorjului"},{"id":7324,"lat":44.43568,"lng":25.975614,"name":"Grup Scolar Auto"},{"id":6570,"lat":44.438161,"lng":25.958923,"name":"Carrefour Militari"},{"id":7559,"lat":44.446369,"lng":25.982427,"name":"Cartier Militari"},{"id":6152,"lat":44.442071,"lng":25.984011,"name":"Tineretului 13"},{"id":6154,"lat":44.441516,"lng":25.987239,"name":"Gladiolelor"},{"id":6743,"lat":44.439271,"lng":25.982875,"name":"Complex Comercial Militari"},{"id":6596,"lat":44.436232,"lng":25.984341,"name":"Centrul Comercial Militari"},{"id":6591,"lat":44.439428,"lng":25.984925,"name":"Complex Comercial Militari"},{"id":6149,"lat":44.442626,"lng":25.987392,"name":"Gladiolelor"},{"id":6194,"lat":44.445016,"lng":25.987395,"name":"Rezervelor 67"},{"id":6195,"lat":44.448468,"lng":25.987032,"name":"Biserica"},{"id":6188,"lat":44.44937,"lng":25.981456,"name":"Tineretului"},{"id":7525,"lat":44.446523,"lng":25.982119,"name":"Cartier Militari"},{"id":7353,"lat":44.387204,"lng":26.078366,"name":"Zetarilor"},{"id":7352,"lat":44.389486,"lng":26.080327,"name":"Valtoarei"},{"id":7348,"lat":44.392435,"lng":26.08242,"name":"Vadul Nou"},{"id":7349,"lat":44.398748,"lng":26.082511,"name":"Piata Ferentarilor"},{"id":7350,"lat":44.400329,"lng":26.077249,"name":"Armistitiului"},{"id":7351,"lat":44.40088,"lng":26.070921,"name":"Soseaua Salaj"},{"id":7347,"lat":44.403555,"lng":26.066875,"name":"Caporal Preda"},{"id":6714,"lat":44.406636,"lng":26.063569,"name":"Piata Rahova"},{"id":6527,"lat":44.408231,"lng":26.059065,"name":"Margeanului"},{"id":6529,"lat":44.412136,"lng":26.060713,"name":"Complex Comercial"},{"id":6499,"lat":44.415033,"lng":26.061315,"name":"Petre Ispirescu"},{"id":6502,"lat":44.417967,"lng":26.058944,"name":"Calea 13 Septembrie"},{"id":6875,"lat":44.434041,"lng":26.059123,"name":"Piata Leul"},{"id":6829,"lat":44.417648,"lng":26.058776,"name":"Calea 13 Septembrie"},{"id":6831,"lat":44.413892,"lng":26.061394,"name":"Margeanului"},{"id":6824,"lat":44.411024,"lng":26.060177,"name":"Complex Comercial"},{"id":6500,"lat":44.407468,"lng":26.059455,"name":"Buzoieni"},{"id":6505,"lat":44.406595,"lng":26.063451,"name":"Piata Rahova"},{"id":7043,"lat":44.403271,"lng":26.06634,"name":"Muntii Carpati"},{"id":7042,"lat":44.400259,"lng":26.071606,"name":"Soseaua Salaj"},{"id":7046,"lat":44.400298,"lng":26.077669,"name":"Armistitiului"},{"id":7048,"lat":44.397912,"lng":26.083275,"name":"Piata Ferentarilor"},{"id":7049,"lat":44.393376,"lng":26.082945,"name":"Vadul Nou"},{"id":7050,"lat":44.390288,"lng":26.080758,"name":"Valtoarei"},{"id":7051,"lat":44.386044,"lng":26.077509,"name":"Zetarilor"},{"id":7061,"lat":44.398249,"lng":26.085977,"name":"Piata Ferentarilor"},{"id":7060,"lat":44.400345,"lng":26.087851,"name":"Rocar"},{"id":7068,"lat":44.401714,"lng":26.091293,"name":"Suhaia"},{"id":7066,"lat":44.404029,"lng":26.096041,"name":"Piata Eroii Revolutiei"},